stop_id,stop_code,stop_name,stop_desc,stop_lon,stop_lat,zone_id,stop_url,location_type,parent_station,stop_timezone,level_id,wheelchair_boarding,platform_code
IDFM:monomodalStopPlace:46689,,Viroflay Rive Droite,,2.1676545647835206,48.805472581494975,,,0,IDFM:422420,,,0,
IDFM:monomodalStopPlace:46647,,Achères Ville,,2.0777265246565433,48.970643570814424,,,0,IDFM:73604,,,0,
IDFM:monomodalStopPlace:474069,,Lozère,,2.212717641845953,48.705912413627026,,,0,IDFM:63029,,,0,
IDFM:monomodalStopPlace:474082,,Noisy-le-Grand - Mont d'Est,,2.550026754158765,48.84088525041221,,,0,IDFM:412697,,,0,
IDFM:monomodalStopPlace:45102,,Châtelet les Halles,,2.34697651043533,48.86174503191322,,,0,IDFM:474151,,,0,
IDFM:monomodalStopPlace:46736,,Dammartin - Juilly - Saint-Mard,,2.699046819624294,49.03215183565455,,,0,IDFM:69254,,,0,
IDFM:monomodalStopPlace:46731,,Compans,,2.6649599355374893,48.99132968756663,,,0,IDFM:69136,,,0,
IDFM:monomodalStopPlace:46725,,Villeparisis - Mitry-le-Neuf,,2.603220561532749,48.95316214687084,,,0,IDFM:68916,,,0,
IDFM:monomodalStopPlace:45067,,Villeneuve-Saint-Georges,,2.446304786739812,48.730080267741016,,,0,IDFM:69568,,,0,
IDFM:monomodalStopPlace:46850,,Montfort-l'Amaury - Méré,,1.8158352700699214,48.802662371849536,,,0,IDFM:63955,,,0,
IDFM:monomodalStopPlace:47901,,Le Raincy - Villemomble - Montfermeil,,2.5130610056844116,48.8888544132907,,,0,IDFM:73297,,,0,
IDFM:monomodalStopPlace:47900,,Val de Fontenay,,2.4890536307751616,48.85424654032024,,,0,IDFM:71718,,,0,
IDFM:monomodalStopPlace:47905,,Bouray,,2.2900778137432436,48.53290340283496,,,0,IDFM:59830,,,0,
IDFM:monomodalStopPlace:46857,,Beynes,,1.8755955719389825,48.860056612665424,,,0,IDFM:64338,,,0,
IDFM:monomodalStopPlace:47904,,Villabé,,2.461533386360794,48.592814943454,,,0,IDFM:60124,,,0,
IDFM:monomodalStopPlace:47903,,Garancières - La Queue,,1.7645793224017485,48.810463686279576,,,0,IDFM:64025,,,0,
IDFM:monomodalStopPlace:47909,,Melun,,2.65469836071817,48.527491277248295,,,0,IDFM:61926,,,0,
IDFM:monomodalStopPlace:47907,,Pont de Rungis Aéroport d'Orly,,2.373209854795934,48.74834625868034,,,0,IDFM:69677,,,0,
IDFM:monomodalStopPlace:47906,,Évry - Courcouronnes,,2.4300329095214526,48.62588794663492,,,0,IDFM:60450,,,0,
IDFM:monomodalStopPlace:47910,,Montereau,,2.942541935520315,48.37960363189276,,,0,IDFM:61414,,,0,
IDFM:monomodalStopPlace:47911,,Fontainebleau - Avon,,2.7267714287220346,48.416666098921,,,0,IDFM:61579,,,0,
IDFM:monomodalStopPlace:47914,,Longueville,,3.2501140784117886,48.513786141275986,,,0,IDFM:61858,,,0,
IDFM:monomodalStopPlace:47916,,Andrésy,,2.0486677678528,48.974620752632916,,,0,IDFM:65542,,,0,
IDFM:monomodalStopPlace:47915,,Achères Grand Cormier,,2.0936529195192275,48.95541092942684,,,0,IDFM:65190,,,0,
IDFM:monomodalStopPlace:473159,,Deuil - Montmagny,,2.338131209772398,48.975925703105524,,,0,IDFM:65562,,,0,
IDFM:monomodalStopPlace:47918,,Auvers-sur-Oise,,2.174916445478343,49.07034498316611,,,0,IDFM:67027,,,0,
IDFM:monomodalStopPlace:47917,,Angerville,,2.0037505317720075,48.311605620382146,,,0,IDFM:59403,,,0,
IDFM:monomodalStopPlace:47923,,Bécon les Bruyères,,2.268790065027107,48.90549079769296,,,0,IDFM:72124,,,0,
IDFM:monomodalStopPlace:47922,,Us,,1.9705444983242866,49.09955483034093,,,0,IDFM:67131,,,0,
IDFM:monomodalStopPlace:47921,,Orgerus - Béhoust,,1.7030300359022215,48.82662740630846,,,0,IDFM:64175,,,0,
IDFM:monomodalStopPlace:47920,,Ermont Halte,,2.26320025038274,48.990533377371726,,,0,IDFM:65910,,,0,
IDFM:monomodalStopPlace:47929,,Chanteloup-les-Vignes,,2.0276211497651646,48.97035707590211,,,0,IDFM:65443,,,0,
IDFM:monomodalStopPlace:47928,,Changis - Saint-Jean,,3.026089283734262,48.95916631326023,,,0,IDFM:68980,,,0,
IDFM:monomodalStopPlace:47927,,Gare de Chamarande,,2.2151562718541644,48.51405318948937,,,0,IDFM:59734,,,0,
IDFM:monomodalStopPlace:47925,,Breuillet - Bruyères-le-Châtel,,2.1922487394356454,48.57760979436327,,,0,IDFM:60028,,,0,
IDFM:monomodalStopPlace:47924,,Boussy-Saint-Antoine,,2.533195809235637,48.68087387117553,,,0,IDFM:62596,,,0,
IDFM:monomodalStopPlace:422065,,Le Val d'Or,,2.2165513289937904,48.85625374079433,,,0,IDFM:422067,,,0,
IDFM:monomodalStopPlace:47932,,Coignières,,1.9214184023981655,48.74374799338111,,,0,IDFM:63369,,,0,
IDFM:monomodalStopPlace:46886,,Maule,,1.8568974216555532,48.90932809474093,,,0,IDFM:64674,,,0,
IDFM:monomodalStopPlace:46884,,Mareil-sur-Mauldre,,1.8718488171877579,48.89302020567544,,,0,IDFM:64572,,,0,
IDFM:monomodalStopPlace:47930,,Chars,,1.936865953454158,49.16300140123273,,,0,IDFM:67352,,,0,
IDFM:monomodalStopPlace:47939,,La Norville - Saint-Germain-lès-Arpajon,,2.266215906699314,48.59111916474817,,,0,IDFM:60115,,,0,
IDFM:monomodalStopPlace:47935,,Houdan,,1.6021344463889766,48.79602555328117,,,0,IDFM:63893,,,0,
IDFM:monomodalStopPlace:47937,,L'Étang-la-Ville,,2.076893601882248,48.86818814962987,,,0,IDFM:73603,,,0,
IDFM:monomodalStopPlace:46897,,Meulan - Hardricourt,,1.9021289902435004,49.00581615609435,,,0,IDFM:66321,,,0,
IDFM:monomodalStopPlace:46801,,Boissy-l'Aillerie,,2.025386064104548,49.07572135804642,,,0,IDFM:67056,,,0,
IDFM:monomodalStopPlace:47946,,Presles - Courcelles,,2.2878509419549213,49.11367528279733,,,0,IDFM:67169,,,0,
IDFM:monomodalStopPlace:47948,,Ris-Orangis,,2.414997460834355,48.659057463386254,,,0,IDFM:60839,,,0,
IDFM:monomodalStopPlace:47949,,Santeuil - Le Perchay,,1.949406923865895,49.12334471123142,,,0,IDFM:67196,,,0,
IDFM:monomodalStopPlace:47940,,Massy - Verrières,,2.273978779055319,48.7349579552114,,,0,IDFM:63320,,,0,
IDFM:monomodalStopPlace:47942,,Mortcerf,,2.9074760676708205,48.789592035371314,,,0,IDFM:67805,,,0,
IDFM:monomodalStopPlace:47943,,Mouroux,,3.0430626039871616,48.813701725231546,,,0,IDFM:67944,,,0,
IDFM:monomodalStopPlace:47944,,Nézel - Aulnay,,1.8404153320794885,48.93882932493657,,,0,IDFM:64945,,,0,
IDFM:monomodalStopPlace:47959,,Tacoignières - Richebourg,,1.6686619019959739,48.829319654250604,,,0,IDFM:64194,,,0,
IDFM:monomodalStopPlace:47958,,Survilliers - Fosses,,2.525517836696695,49.09951161811565,,,0,IDFM:69450,,,0,
IDFM:monomodalStopPlace:47951,,Seugy,,2.3996583056293246,49.11912737513361,,,0,IDFM:67180,,,0,
IDFM:monomodalStopPlace:47952,,Saint-Chéron,,2.1249767315730463,48.550937745357075,,,0,IDFM:59882,,,0,
IDFM:monomodalStopPlace:47950,,Sermaise,,2.069088468619773,48.535687624993614,,,0,IDFM:59842,,,0,
IDFM:monomodalStopPlace:47955,,Saint-Ouen-l'Aumône Quartier de l'Église,,2.1034691329132857,49.03909361746138,,,0,IDFM:66731,,,0,
IDFM:monomodalStopPlace:47953,,Saint-Mammès,,2.816506976966753,48.38264713543743,,,0,IDFM:61423,,,0,
IDFM:monomodalStopPlace:47954,,Saint-Nom-la-Bretèche Forêt de Marly,,2.051299627156171,48.867096240827834,,,0,IDFM:64382,,,0,
IDFM:monomodalStopPlace:47968,,Les Noues,,2.477713962139221,49.03307204384692,,,0,IDFM:66650,,,0,
IDFM:monomodalStopPlace:47969,,Les Vallées,,2.2572045759752384,48.91365276270651,,,0,IDFM:72177,,,0,
IDFM:monomodalStopPlace:47964,,Vernouillet - Verneuil,,1.9829377621754614,48.981645855003116,,,0,IDFM:65691,,,0,
IDFM:monomodalStopPlace:46832,,Gazeran,,1.7731940021017505,48.62603010015844,,,0,IDFM:60454,,,0,
IDFM:monomodalStopPlace:47966,,Villennes-sur-Seine,,1.999557321396041,48.93983138477974,,,0,IDFM:64949,,,0,
IDFM:monomodalStopPlace:47967,,Vosves,,2.5994097381795305,48.51507609100275,,,0,IDFM:61850,,,0,
IDFM:monomodalStopPlace:47960,,Thieux - Nantouillet,,2.6802537675802913,49.00813565335945,,,0,IDFM:69196,,,0,
IDFM:monomodalStopPlace:47961,,Thomery,,2.764187149192088,48.39428183783365,,,0,IDFM:61480,,,0,
IDFM:monomodalStopPlace:47962,,Trilport,,2.949685912410061,48.96016915361593,,,0,IDFM:68984,,,0,
IDFM:monomodalStopPlace:47963,,Vaucelles,,2.2294526219892656,49.02172683988197,,,0,IDFM:66520,,,0,
IDFM:monomodalStopPlace:46847,,Gare de Villiers Neauphle Pontchartrain,,1.8775357849413559,48.81532337552301,,,0,IDFM:424296,,,0,
IDFM:monomodalStopPlace:473109,,Maisons-Laffitte,,2.1446722659338855,48.94574060746957,,,0,IDFM:65048,,,0,
IDFM:monomodalStopPlace:46990,,Saint-Cyr,,2.072712440765476,48.79877460471833,,,0,IDFM:73731,,,0,
IDFM:monomodalStopPlace:46975,,Issou - Porcheville,,1.7838404356830648,48.9793069192499,,,0,IDFM:65668,,,0,
IDFM:monomodalStopPlace:46984,,Bonnières,,1.5820546885594051,49.03882194566387,,,0,IDFM:66741,,,0,
IDFM:monomodalStopPlace:46926,,Triel-sur-Seine,,2.005709444143668,48.98141600700941,,,0,IDFM:463843,,,0,
IDFM:monomodalStopPlace:46902,,Thun le Paradis,,1.919170589720022,49.006673442207415,,,0,IDFM:66334,,,0,
IDFM:monomodalStopPlace:46965,,Mantes Station,,1.7151334567152097,48.98360892717879,,,0,IDFM:65770,,,0,
IDFM:monomodalStopPlace:412743,,Saint-Denis,,2.345479004987329,48.93482889939617,,,0,IDFM:72323,,,0,
IDFM:monomodalStopPlace:47205,,Guérard - La Celle-sur-Morin,,2.9538116993768355,48.81076877713248,,,0,IDFM:67924,,,0,
IDFM:monomodalStopPlace:47238,,Fontenay-sous-Bois,,2.463537806527943,48.8437885964859,,,0,IDFM:71630,,,0,
IDFM:monomodalStopPlace:43044,,Gagny,,2.5254046016945138,48.883728731604535,,,0,IDFM:73278,,,0,
IDFM:monomodalStopPlace:44514,,Porte de Clichy,,2.3159411535514716,48.894262568309564,,,0,IDFM:71545,,,0,
IDFM:monomodalStopPlace:44500,,Port Royal,,2.3371383995944486,48.840064350218256,,,0,IDFM:71106,,,0,
IDFM:monomodalStopPlace:44559,,Cergy Préfecture,,2.0797809490013073,49.036306683133965,,,0,IDFM:66696,,,0,
IDFM:monomodalStopPlace:47322,,Esbly,,2.809640025507793,48.902895083058525,,,0,IDFM:68653,,,0,
IDFM:monomodalStopPlace:47325,,Montry - Condé,,2.8256554095986797,48.891071946593115,,,0,IDFM:68582,,,0,
IDFM:monomodalStopPlace:47327,,Couilly - Saint-Germain - Quincy,,2.8541379702257133,48.8827095608886,,,0,IDFM:68505,,,0,
IDFM:monomodalStopPlace:48964,,Saint-Leu-la-Forêt,,2.2428869689226687,49.01523840177278,,,0,IDFM:66452,,,0,
IDFM:monomodalStopPlace:44411,,Pontoise,,2.0957859968423524,49.04673337596684,,,0,IDFM:66816,,,0,
IDFM:monomodalStopPlace:44493,,Bagneux,,2.3220087047421583,48.79333690627149,,,0,IDFM:70210,,,0,
IDFM:monomodalStopPlace:47412,,La Garenne-Colombes,,2.2397947530458273,48.90957685679064,,,0,IDFM:72148,,,0,
IDFM:monomodalStopPlace:47009,,Palaiseau,,2.24558429554376,48.71686524330362,,,0,IDFM:63175,,,0,
IDFM:monomodalStopPlace:47095,,Dourdan la Forêt,,1.996005688002604,48.53542058733677,,,0,IDFM:59843,,,0,
IDFM:monomodalStopPlace:47052,,Courcelle-sur-Yvette,,2.097722386795541,48.70131367727702,,,0,IDFM:62951,,,0,
IDFM:monomodalStopPlace:47046,,La Hacquinière,,2.1516106103390045,48.695299548452454,,,0,IDFM:62825,,,0,
IDFM:monomodalStopPlace:44787,,Rungis la Fraternelle,,2.3521980873905326,48.74021613668418,,,0,IDFM:69633,,,0,
IDFM:monomodalStopPlace:45860,,Grand Bourg,,2.4348387319350167,48.64880840591746,,,0,IDFM:73627,,,0,
IDFM:monomodalStopPlace:45877,,Gentilly,,2.340926830790754,48.815228092611335,,,0,IDFM:70543,,,0,
IDFM:monomodalStopPlace:45873,,Auber,,2.3296591495793595,48.872348840718196,,,0,IDFM:478926,,,0,
IDFM:monomodalStopPlace:45850,,Le Bras de Fer,,2.4520047548737254,48.623306397197155,,,0,IDFM:60422,,,0,
IDFM:monomodalStopPlace:45820,,Le Plessis Chenet,,2.4795222910084975,48.57358727886637,,,0,IDFM:60006,,,0,
IDFM:monomodalStopPlace:45824,,Le Coudray-Montceaux,,2.492424499497774,48.56619819315809,,,0,IDFM:59953,,,0,
IDFM:monomodalStopPlace:45804,,Livry-sur-Seine,,2.6789439431211646,48.510288065207455,,,0,IDFM:61826,,,0,
IDFM:monomodalStopPlace:45814,,Saint-Fargeau,,2.5426100742385285,48.56502608446919,,,0,IDFM:62172,,,0,
IDFM:monomodalStopPlace:45812,,Ponthierry - Pringy,,2.5445365646399507,48.535084951085466,,,0,IDFM:61976,,,0,
IDFM:monomodalStopPlace:411511,,Épernon,,1.6816723125024857,48.60508485349536,,,0,IDFM:411512,,,0,
IDFM:monomodalStopPlace:47119,,Bagneaux-sur-Loing,,2.7040329448732985,48.22938980618883,,,0,IDFM:61145,,,0,
IDFM:monomodalStopPlace:47118,,Souppes - Château-Landon,,2.7358697259911766,48.18117871674994,,,0,IDFM:61094,,,0,
IDFM:monomodalStopPlace:47115,,Saint-Martin d'Étampes,,2.145258831307165,48.42748765080825,,,0,IDFM:59531,,,0,
IDFM:monomodalStopPlace:47130,,Moret - Veneux-les-Sablons,,2.800462899908886,48.37789836789835,,,0,IDFM:61410,,,0,
IDFM:monomodalStopPlace:47136,,Vulaines-sur-Seine - Samoreau,,2.752898337073854,48.430461048527036,,,0,IDFM:61630,,,0,
IDFM:monomodalStopPlace:411501,,Saint-Piat,,1.5900733879453606,48.542555489100806,,,0,IDFM:411502,,,0,
IDFM:monomodalStopPlace:411504,,La Villette Saint-Prest,,1.5243665464960081,48.48257328597441,,,0,IDFM:411505,,,0,
IDFM:monomodalStopPlace:47125,,Montigny-sur-Loing,,2.738336123575285,48.33649861774928,,,0,IDFM:61327,,,0,
IDFM:monomodalStopPlace:411507,,Chartres,,1.4805376543356368,48.44815728195019,,,0,IDFM:411508,,,0,
IDFM:monomodalStopPlace:47124,,Bourron-Marlotte - Grez,,2.6918764214147592,48.332451033464054,,,0,IDFM:61318,,,0,
IDFM:monomodalStopPlace:47199,,Faremoutiers - Pommeuse,,2.9932738165708552,48.80853544410162,,,0,IDFM:67917,,,0,
IDFM:monomodalStopPlace:47187,,Verneuil-l'Étang,,2.825083962015835,48.64438940351837,,,0,IDFM:62471,,,0,
IDFM:monomodalStopPlace:47184,,Mormant,,2.88807855133882,48.61409277056721,,,0,IDFM:62351,,,0,
IDFM:monomodalStopPlace:47181,,Provins,,3.302334202203228,48.55553092379296,,,0,IDFM:62139,,,0,
IDFM:monomodalStopPlace:46007,,La Croix de Berny,,2.3042107053612133,48.76171816323692,,,0,IDFM:69813,,,0,
IDFM:monomodalStopPlace:47158,,Nangis,,3.0121779578254295,48.5617195064875,,,0,IDFM:62168,,,0,
IDFM:monomodalStopPlace:47145,,Héricy,,2.7607507689116346,48.44272124429534,,,0,IDFM:61658,,,0,
IDFM:monomodalStopPlace:47171,,Sainte-Colombe Septveilles,,3.2553403241826864,48.52915312687445,,,0,IDFM:61961,,,0,
IDFM:monomodalStopPlace:47174,,Champbenoist Poigny,,3.2866300417033125,48.54520762505785,,,0,IDFM:62064,,,0,
IDFM:monomodalStopPlace:46035,,Chemin d'Antony,,2.3126496863919335,48.747936542587276,,,0,IDFM:69682,,,0,
IDFM:monomodalStopPlace:44602,,Versailles Rive Droite,,2.1368871000602927,48.80949051640336,,,0,IDFM:64021,,,0,
IDFM:monomodalStopPlace:44628,,Louvres,,2.5018113143714777,49.04933726826723,,,0,IDFM:69300,,,0,
IDFM:monomodalStopPlace:45763,,Boissise-le-Roi,,2.57179291425262,48.52985734002498,,,0,IDFM:61943,,,0,
IDFM:monomodalStopPlace:45761,,Moulin Galant,,2.473444919964576,48.58688228073328,,,0,IDFM:60084,,,0,
IDFM:monomodalStopPlace:45771,,Combs-la-Ville - Quincy,,2.5476998823085504,48.667819721800015,,,0,IDFM:62558,,,0,
IDFM:monomodalStopPlace:45784,,Le Mée,,2.6255537322060074,48.538746730738936,,,0,IDFM:62003,,,0,
IDFM:monomodalStopPlace:411488,,Ferrières - Fontenay,,2.7720920761530037,48.09588996416835,,,0,IDFM:411489,,,0,
IDFM:monomodalStopPlace:411492,,Dreux,,1.3704314171005363,48.731106368847485,,,0,IDFM:411493,,,0,
IDFM:monomodalStopPlace:411498,,Jouy,,1.5573780613685342,48.509921715910615,,,0,IDFM:411499,,,0,
IDFM:monomodalStopPlace:411495,,Marchezais - Broué,,1.5135715190299066,48.76839076858962,,,0,IDFM:411496,,,0,
IDFM:monomodalStopPlace:411479,,Laroche - Migennes,,3.5126763134529835,47.96107924372578,,,0,IDFM:411480,,,0,
IDFM:monomodalStopPlace:45735,,Vigneux-sur-Seine,,2.413499342148242,48.70808932141768,,,0,IDFM:63071,,,0,
IDFM:monomodalStopPlace:45739,,Juvisy,,2.383334629403869,48.68970940912314,,,0,IDFM:478505,,,0,
IDFM:monomodalStopPlace:411482,,Montargis,,2.743201130533139,48.00669739961254,,,0,IDFM:411483,,,0,
IDFM:monomodalStopPlace:411485,,Malesherbes,,2.4010364417288774,48.293633291470464,,,0,IDFM:411486,,,0,
IDFM:monomodalStopPlace:45745,,Évry - Val de Seine,,2.4523091616356028,48.63439299320402,,,0,IDFM:60522,,,0,
IDFM:monomodalStopPlace:411467,,Joigny,,3.393667054376571,47.973655686300866,,,0,IDFM:411468,,,0,
IDFM:monomodalStopPlace:411476,,Villeneuve-sur-Yonne,,3.2865046950805197,48.085206695756156,,,0,IDFM:411477,,,0,
IDFM:monomodalStopPlace:411473,,Saint-Julien du Sault,,3.302762450780337,48.02662402302481,,,0,IDFM:411474,,,0,
IDFM:monomodalStopPlace:411455,,Étigny - Véron,,3.2900826338816094,48.13765030143217,,,0,IDFM:411456,,,0,
IDFM:monomodalStopPlace:411458,,Pont-sur-Yonne,,3.201822135556628,48.286200143295794,,,0,IDFM:411459,,,0,
IDFM:monomodalStopPlace:45759,,Essonnes Robinson,,2.463295818844443,48.60581740091332,,,0,IDFM:422776,,,0,
IDFM:monomodalStopPlace:411464,,Villeneuve-la-Guyard,,3.0720201061041963,48.34261875935412,,,0,IDFM:411465,,,0,
IDFM:monomodalStopPlace:411461,,Champigny-sur-Yonne,,3.130154840410363,48.32421062271411,,,0,IDFM:411462,,,0,
IDFM:monomodalStopPlace:45705,,Musée d'Orsay,,2.326623034830927,48.860365575927474,,,0,IDFM:71269,,,0,
IDFM:monomodalStopPlace:46163,,Le Blanc-Mesnil,,2.4753884360764298,48.93230698220945,,,0,IDFM:72648,,,0,
IDFM:monomodalStopPlace:411428,,Chantilly - Gouvieux,,2.4595159140085237,49.187030004663995,,,0,IDFM:411429,,,0,
IDFM:monomodalStopPlace:47684,,Montgeron - Crosne,,2.461377446437224,48.70871108366713,,,0,IDFM:63072,,,0,
IDFM:monomodalStopPlace:411418,,La Borne Blanche,,2.5069908684194053,49.1261949449139,,,0,IDFM:411419,,,0,
IDFM:monomodalStopPlace:411421,,Orry-la-Ville - Coye,,2.489862086302069,49.13840546145438,,,0,IDFM:411422,,,0,
IDFM:monomodalStopPlace:411449,,Voves,,1.6220416259899684,48.27503094784323,,,0,IDFM:411450,,,0,
IDFM:monomodalStopPlace:411446,,Bonneval,,1.3862711811788562,48.186422216965354,,,0,IDFM:411447,,,0,
IDFM:monomodalStopPlace:47669,,Lieusaint - Moissy,,2.569507070898012,48.62833648393033,,,0,IDFM:62412,,,0,
IDFM:monomodalStopPlace:47665,,Savigny-le-Temple - Nandy,,2.5839359760934313,48.59548998563483,,,0,IDFM:62290,,,0,
IDFM:monomodalStopPlace:411452,,Sens,,3.2673805413803247,48.19822559869753,,,0,IDFM:411453,,,0,
IDFM:monomodalStopPlace:411443,,Châteaudun,,1.3384330021828876,48.073492940832686,,,0,IDFM:411444,,,0,
IDFM:monomodalStopPlace:411440,,Creil,,2.46892902764167,49.264185555044406,,,0,IDFM:411441,,,0,
IDFM:monomodalStopPlace:411405,,Le Plessis-Belleville,,2.745036686332378,49.09632467804431,,,0,IDFM:411406,,,0,
IDFM:monomodalStopPlace:411387,,Ormoy-Villers,,2.8379866073485736,49.20071099536894,,,0,IDFM:411388,,,0,
IDFM:monomodalStopPlace:411381,,Chézy-sur-Marne,,3.3644154018991057,48.99188251331995,,,0,IDFM:411382,,,0,
IDFM:monomodalStopPlace:411384,,Nogent-L'Artaud - Charly,,3.3228476502480797,48.96871609894733,,,0,IDFM:411385,,,0,
IDFM:monomodalStopPlace:411378,,Château-Thierry,,3.409522741444065,49.037933505433955,,,0,IDFM:411379,,,0,
IDFM:monomodalStopPlace:411390,,Nanteuil-le-Haudouin,,2.7941647655566535,49.14251123380041,,,0,IDFM:411391,,,0,
IDFM:monomodalStopPlace:411396,,Crépy-en-Valois,,2.8880999806451184,49.23108254935135,,,0,IDFM:411397,,,0,
IDFM:monomodalStopPlace:411342,,Liancourt-Saint-Pierre,,1.9054790812050526,49.22054256178432,,,0,IDFM:411343,,,0,
IDFM:monomodalStopPlace:47770,,Garches - Marnes-la-Coquette,,2.187092668770097,48.838254440887944,,,0,IDFM:70713,,,0,
IDFM:monomodalStopPlace:411338,,Trie-Château,,1.818497020989674,49.2824007109848,,,0,IDFM:411339,,,0,
IDFM:monomodalStopPlace:47767,,Sèvres - Ville-d'Avray,,2.2007294495659546,48.827253206930806,,,0,IDFM:70686,,,0,
IDFM:monomodalStopPlace:411348,,Lavilletertre,,1.9205792747729,49.20238205277644,,,0,IDFM:411349,,,0,
IDFM:monomodalStopPlace:411345,,Chaumont-en-Vexin,,1.8732362595841847,49.26118959499568,,,0,IDFM:411346,,,0,
IDFM:monomodalStopPlace:411362,,Bueil,,1.4434975696537509,48.92527105599798,,,0,IDFM:411363,,,0,
IDFM:monomodalStopPlace:411365,,Évreux Normandie,,1.1498558322259897,49.01841486817869,,,0,IDFM:411366,,,0,
IDFM:monomodalStopPlace:411372,,La Ferté-Milon,,3.1206754069517184,49.17963214095126,,,0,IDFM:411373,,,0,
IDFM:monomodalStopPlace:411375,,Mareuil-sur-Ourcq,,3.0754989980809686,49.135381005893805,,,0,IDFM:411376,,,0,
IDFM:monomodalStopPlace:45493,,Pont Cardinet,,2.312950431098551,48.88839532721545,,,0,IDFM:71475,,,0,
IDFM:monomodalStopPlace:462901,,Ozoir-la-Ferrière,,2.690116190500944,48.77076716837013,,,0,IDFM:462934,,,0,
IDFM:monomodalStopPlace:46286,,Créteil Pompadour,,2.435315840251248,48.771254072297346,,,0,IDFM:69950,,,0,
IDFM:monomodalStopPlace:46222,,Vert Galant,,2.5663968806983126,48.944091645418105,,,0,IDFM:73482,,,0,
IDFM:monomodalStopPlace:411329,,Saint-Leu-d'Esserent,,2.417071454431694,49.21379460642065,,,0,IDFM:411330,,,0,
IDFM:monomodalStopPlace:411326,,Précy-sur-Oise,,2.377341204610025,49.20347714232073,,,0,IDFM:411327,,,0,
IDFM:monomodalStopPlace:411332,,Boran-sur-Oise,,2.362237794019318,49.16664871633883,,,0,IDFM:411333,,,0,
IDFM:monomodalStopPlace:411317,,Beauvais,,2.08834582322506,49.426247411392204,,,0,IDFM:411318,,,0,
IDFM:monomodalStopPlace:47790,,Bougival,,2.132028029856739,48.85379323051655,,,0,IDFM:64301,,,0,
IDFM:monomodalStopPlace:46299,,Orly Ville,,2.4030548924063897,48.74163230680523,,,0,IDFM:69639,,,0,
IDFM:monomodalStopPlace:46298,,Les Saules,,2.4174549898851208,48.74520105223681,,,0,IDFM:69662,,,0,
IDFM:monomodalStopPlace:47874,,Poissy,,2.040804469960689,48.93324983956547,,,0,IDFM:64883,,,0,
IDFM:monomodalStopPlace:47875,,Argenteuil,,2.257913508915154,48.9468952901277,,,0,IDFM:65063,,,0,
IDFM:monomodalStopPlace:47876,,Goussainville,,2.4625658079312593,49.02341075826703,,,0,IDFM:66535,,,0,
IDFM:monomodalStopPlace:48489,,Orangis Bois de l'Épine,,2.40769076622141,48.6363396147683,,,0,IDFM:60542,,,0,
IDFM:monomodalStopPlace:47877,,Rosny-sous-Bois,,2.4857557993217947,48.87007067367753,,,0,IDFM:71935,,,0,
IDFM:monomodalStopPlace:47878,,Parc des Expositions,,2.5145512908225953,48.97356812654279,,,0,IDFM:73568,,,0,
IDFM:monomodalStopPlace:47879,,Neuville Université,,2.078348820578231,49.01374275942672,,,0,IDFM:66436,,,0,
IDFM:monomodalStopPlace:47898,,Ermont - Eaubonne,,2.2707541014797794,48.98049890628609,,,0,IDFM:65669,,,0,
IDFM:monomodalStopPlace:47899,,Mennecy,,2.4319348900260658,48.57054850948166,,,0,IDFM:59984,,,0,
IDFM:monomodalStopPlace:47894,,Crécy-la-Chapelle,,2.905450103333207,48.859557101380915,,,0,IDFM:68293,,,0,
IDFM:monomodalStopPlace:47895,,Boutigny,,2.3767454804181263,48.43442542513416,,,0,IDFM:59565,,,0,
IDFM:monomodalStopPlace:47897,,Cergy Saint-Christophe,,2.0345219282999176,49.049642166828754,,,0,IDFM:66858,,,0,
IDFM:monomodalStopPlace:47882,,Épône - Mézières,,1.809133387838305,48.96340497197892,,,0,IDFM:65326,,,0,
IDFM:monomodalStopPlace:47881,,Les Mureaux,,1.9134674211236111,48.99259097971094,,,0,IDFM:65994,,,0,
IDFM:monomodalStopPlace:47880,,La Celle-Saint-Cloud,,2.138236726142033,48.84262523059504,,,0,IDFM:64251,,,0,
IDFM:monomodalStopPlace:47889,,Saint-Rémy-lès-Chevreuse,,2.071385742904064,48.702732696472715,,,0,IDFM:62978,,,0,
IDFM:monomodalStopPlace:47888,,Gif-sur-Yvette,,2.136467766743371,48.69816908612799,,,0,IDFM:62890,,,0,
IDFM:monomodalStopPlace:47885,,Plaisir - Grignon,,1.943537514733802,48.831926089228816,,,0,IDFM:64199,,,0,
IDFM:monomodalStopPlace:47886,,Nogent-sur-Marne,,2.471683791180998,48.834306538503405,,,0,IDFM:71590,,,0,
IDFM:monomodalStopPlace:47883,,Chaville - Vélizy,,2.1834187943404744,48.79968116446791,,,0,IDFM:69487,,,0,
IDFM:monomodalStopPlace:47884,,Fontenay-le-Fleury,,2.0407045118857456,48.807273444277804,,,0,IDFM:63999,,,0,
IDFM:monomodalStopPlace:46304,,Villeneuve Triage,,2.438697833840877,48.744611139140474,,,0,IDFM:69671,,,0,
IDFM:monomodalStopPlace:46307,,Villeneuve-le-Roi,,2.426423645047488,48.73968685807613,,,0,IDFM:69625,,,0,
IDFM:monomodalStopPlace:479059,,Rosny-sur-Seine,,1.6298170882272784,48.99751746396684,,,0,IDFM:66157,,,0,
IDFM:monomodalStopPlace:46366,,Ivry-sur-Seine,,2.391677280020743,48.8139591342409,,,0,IDFM:424396,,,0,
IDFM:monomodalStopPlace:479035,,Paris-Bercy Bourgogne - Pays d'Auvergne,,2.384209720351069,48.83858620193177,,,0,IDFM:71607,,,0,
IDFM:monomodalStopPlace:43248,,Marly-le-Roi,,2.0965372930677657,48.87152941199376,,,0,IDFM:64405,,,0,
IDFM:monomodalStopPlace:43247,,Marles-en-Brie,,2.868811725090548,48.73481854687385,,,0,IDFM:67604,,,0,
IDFM:monomodalStopPlace:43246,,La Ferté-sous-Jouarre,,3.124704606439104,48.95078183142266,,,0,IDFM:68918,,,0,
IDFM:monomodalStopPlace:43245,,Nemours-Saint-Pierre,,2.6850524330729284,48.26863657605134,,,0,IDFM:61218,,,0,
IDFM:monomodalStopPlace:43241,,Chaville Rive Droite,,2.1885894806735937,48.81299614830529,,,0,IDFM:69503,,,0,
IDFM:monomodalStopPlace:46395,,Athis-Mons,,2.403668724287269,48.71266832171659,,,0,IDFM:63134,,,0,
IDFM:monomodalStopPlace:43251,,Garges - Sarcelles,,2.3899547555239407,48.97632635843972,,,0,IDFM:65582,,,0,
IDFM:monomodalStopPlace:43222,,Villiers-le-Bel - Gonesse - Arnouville,,2.4162467958973055,48.99377204005172,,,0,IDFM:66009,,,0,
IDFM:monomodalStopPlace:43221,,Villepreux - Les Clayes,,1.992798523459497,48.82366793006802,,,0,IDFM:64145,,,0,
IDFM:monomodalStopPlace:43220,,Versailles Château Rive Gauche,,2.130150772175517,48.79991350059487,,,0,IDFM:73721,,,0,
IDFM:monomodalStopPlace:43226,,Yerres,,2.483187005163047,48.7064507273249,,,0,IDFM:63044,,,0,
IDFM:monomodalStopPlace:43225,,Viry-Châtillon,,2.387021960013403,48.67590783936994,,,0,IDFM:60981,,,0,
IDFM:monomodalStopPlace:43224,,Vincennes,,2.4325836014183,48.84734683460296,,,0,IDFM:71651,,,0,
IDFM:monomodalStopPlace:43223,,Villiers-sur-Marne - Le Plessis-Trévise,,2.542644466674205,48.82324786783017,,,0,IDFM:73097,,,0,
IDFM:monomodalStopPlace:43229,,Les Essarts-le-Roi,,1.8896613918946876,48.721693353095276,,,0,IDFM:63240,,,0,
IDFM:monomodalStopPlace:43228,,Les Baconnets,,2.288108127151424,48.73984612871272,,,0,IDFM:69622,,,0,
IDFM:monomodalStopPlace:43227,,Les Ardoines,,2.409587305033223,48.78248922625494,,,0,IDFM:70064,,,0,
IDFM:monomodalStopPlace:46375,,Vitry-sur-Seine,,2.40269438767449,48.80028105254759,,,0,IDFM:70313,,,0,
IDFM:monomodalStopPlace:43231,,Le Bourget,,2.425825637815098,48.930744340383264,,,0,IDFM:72641,,,0,
IDFM:monomodalStopPlace:43230,,Les Grésillons,,2.313901968217972,48.9206901983449,,,0,IDFM:72225,,,0,
IDFM:monomodalStopPlace:43232,,Le Guichet,,2.1929739951487424,48.705497380193584,,,0,IDFM:63025,,,0,
IDFM:monomodalStopPlace:43235,,Le Perray,,1.8566531860615936,48.69336112490438,,,0,IDFM:62804,,,0,
IDFM:monomodalStopPlace:43234,,Le Parc de Saint-Maur,,2.486623744135692,48.8054097518155,,,0,IDFM:70359,,,0,
IDFM:monomodalStopPlace:43237,,Le Vésinet - Le Pecq,,2.122132232303764,48.89794951079969,,,0,IDFM:64582,,,0,
IDFM:monomodalStopPlace:43236,,Le Stade,,2.260948512567054,48.93172049557505,,,0,IDFM:72287,,,0,
IDFM:monomodalStopPlace:43239,,Marne-la-Vallée Chessy,,2.7824826512673546,48.86979506673141,,,0,IDFM:68385,,,0,
IDFM:monomodalStopPlace:43238,,Gare Montparnasse,,2.316388731382968,48.83841119933774,,,0,IDFM:71139,,,0,
IDFM:monomodalStopPlace:46387,,Ablon,,2.4198671478914595,48.72578126379895,,,0,IDFM:69554,,,0,
IDFM:monomodalStopPlace:47482,,Nanteuil - Saâcy,,3.2194260927085296,48.97400193831618,,,0,IDFM:69072,,,0,
IDFM:monomodalStopPlace:47484,,Isles - Armentières - Congis,,3.007871639575125,48.99837487688993,,,0,IDFM:69162,,,0,
IDFM:monomodalStopPlace:47486,,Lizy-sur-Ourcq,,3.0317831029512066,49.02172710081919,,,0,IDFM:69237,,,0,
IDFM:monomodalStopPlace:43209,,Trappes,,2.0065902166898377,48.7747853970692,,,0,IDFM:463850,,,0,
IDFM:monomodalStopPlace:43205,,Suresnes Mont Valérien,,2.2210567895582143,48.871689522026664,,,0,IDFM:70829,,,0,
IDFM:monomodalStopPlace:43206,,Taverny,,2.222287008769188,49.024976382846596,,,0,IDFM:66557,,,0,
IDFM:monomodalStopPlace:43207,,Torcy,,2.655169106193295,48.83971015133779,,,0,IDFM:68129,,,0,
IDFM:monomodalStopPlace:43208,,Tournan,,2.7589013341652717,48.739445157221006,,,0,IDFM:67625,,,0,
IDFM:monomodalStopPlace:43201,,Saint-Gratien,,2.285777828585351,48.963658273529425,,,0,IDFM:65305,,,0,
IDFM:monomodalStopPlace:43202,,Saint-Michel-sur-Orge,,2.3068029676156123,48.635615525211605,,,0,IDFM:60536,,,0,
IDFM:monomodalStopPlace:43203,,Saint-Ouen,,2.322694729473372,48.90456082213364,,,0,IDFM:72126,,,0,
IDFM:monomodalStopPlace:43204,,Stade de France Saint-Denis,,2.3504430479100207,48.91769737260247,,,0,IDFM:72206,,,0,
IDFM:monomodalStopPlace:47491,,Crouy-sur-Ourcq,,3.062669111949777,49.09189047640195,,,0,IDFM:69435,,,0,
IDFM:monomodalStopPlace:43218,,Vernou-sur-Seine,,2.8421499951400837,48.38667549692297,,,0,IDFM:61450,,,0,
IDFM:monomodalStopPlace:43219,,Versailles Chantiers,,2.1349078603373464,48.79526039893613,,,0,IDFM:63880,,,0,
IDFM:monomodalStopPlace:43216,,Vaucresson,,2.152674671677768,48.836684490249404,,,0,IDFM:70705,,,0,
IDFM:monomodalStopPlace:43217,,Vaux-sur-Seine,,1.9630264473162566,49.0073550143858,,,0,IDFM:66338,,,0,
IDFM:monomodalStopPlace:43214,,Vanves - Malakoff,,2.2919742374890983,48.81828945559893,,,0,IDFM:70584,,,0,
IDFM:monomodalStopPlace:43215,,Vauboyen,,2.1925522822775045,48.75897132762851,,,0,IDFM:63454,,,0,
IDFM:monomodalStopPlace:43212,,Val d'Argenteuil,,2.2326940500534516,48.95065749524003,,,0,IDFM:65110,,,0,
IDFM:monomodalStopPlace:43213,,Val d'Europe,,2.7724268942340276,48.85484622851565,,,0,IDFM:68266,,,0,
IDFM:monomodalStopPlace:43211,,Vaires - Torcy,,2.637705554664271,48.87517306494243,,,0,IDFM:68419,,,0,
IDFM:monomodalStopPlace:47447,,Conflans-Sainte-Honorine,,2.09871661352047,48.996919424234726,,,0,IDFM:66095,,,0,
IDFM:monomodalStopPlace:461504,,Saint-Quentin en Yvelines - Montigny-le-Bretonneux,,2.044615988930814,48.78748491597792,,,0,IDFM:63812,,,0,
IDFM:monomodalStopPlace:47533,,Bruyères-sur-Oise,,2.32483287423228,49.15511620671838,,,0,IDFM:67325,,,0,
IDFM:monomodalStopPlace:47530,,Nointel - Mours,,2.2799576391232472,49.13282894869498,,,0,IDFM:67227,,,0,
IDFM:monomodalStopPlace:47524,,Belloy - Saint-Martin,,2.3613265147338978,49.09838940491585,,,0,IDFM:67126,,,0,
IDFM:monomodalStopPlace:47525,,Viarmes,,2.3682376422969282,49.11663481669089,,,0,IDFM:67176,,,0,
IDFM:monomodalStopPlace:47522,,Villaines,,2.3505357370070645,49.079264370566555,,,0,IDFM:67072,,,0,
IDFM:monomodalStopPlace:47528,,Luzarches,,2.4200435326085863,49.117099228494695,,,0,IDFM:67177,,,0,
IDFM:monomodalStopPlace:47517,,Bouffémont - Moisselles,,2.3229000286671555,49.045103567466136,,,0,IDFM:66795,,,0,
IDFM:monomodalStopPlace:44314,,Péreire Levallois,,2.2992286819828145,48.88602700780433,,,0,IDFM:71453,,,0,
IDFM:monomodalStopPlace:45453,,Boulainvilliers,,2.274806827480264,48.856981095562965,,,0,IDFM:71229,,,0,
IDFM:monomodalStopPlace:45447,,Avenue Henri Martin,,2.2722351438875577,48.86545537297977,,,0,IDFM:71286,,,0,
IDFM:monomodalStopPlace:45437,,Avenue Foch,,2.2747712644338454,48.86985281215763,,,0,IDFM:71321,,,0,
IDFM:monomodalStopPlace:43195,,Sèvres Rive Gauche,,2.215079572125279,48.82121360785643,,,0,IDFM:463754,,,0,
IDFM:monomodalStopPlace:43196,,Saint-Cloud,,2.2176312182469986,48.846058536430505,,,0,IDFM:73749,,,0,
IDFM:monomodalStopPlace:43193,,Sevran Beaudottes,,2.5247262164471342,48.94700236504643,,,0,IDFM:73491,,,0,
IDFM:monomodalStopPlace:43194,,Sevran - Livry,,2.5352889927291447,48.93640164880271,,,0,IDFM:73439,,,0,
IDFM:monomodalStopPlace:43191,,Sartrouville,,2.1572200388507317,48.93769529363442,,,0,IDFM:64918,,,0,
IDFM:monomodalStopPlace:43192,,Savigny-sur-Orge,,2.3523541804056833,48.67639468866699,,,0,IDFM:60987,,,0,
IDFM:monomodalStopPlace:43190,,Sarcelles - Saint-Brice,,2.3686856352535353,48.99620491669132,,,0,IDFM:66079,,,0,
IDFM:monomodalStopPlace:43198,,Saint-Germain-en-Laye,,2.095041912326374,48.898745300550765,,,0,IDFM:64589,,,0,
IDFM:monomodalStopPlace:45419,,Avenue du Président Kennedy Maison de Radio France,,2.279679454187814,48.85352548506894,,,0,IDFM:71212,,,0,
IDFM:monomodalStopPlace:43183,,Porchefontaine,,2.1522340489858127,48.79654475986442,,,0,IDFM:63886,,,0,
IDFM:monomodalStopPlace:43184,,Puteaux,,2.2336164976472146,48.8833721630466,,,0,IDFM:71422,,,0,
IDFM:monomodalStopPlace:43180,,Pierrelaye,,2.1545313948758564,49.01917957374756,,,0,IDFM:66491,,,0,
IDFM:monomodalStopPlace:43181,,Plaisir - Les Clayes,,1.960091444651348,48.830838967119995,,,0,IDFM:64195,,,0,
IDFM:monomodalStopPlace:43186,,Robinson,,2.281364769669608,48.78023982792202,,,0,IDFM:427230,,,0,
IDFM:monomodalStopPlace:43189,,Sannois,,2.263820283806777,48.970881176549405,,,0,IDFM:65441,,,0,
IDFM:monomodalStopPlace:43188,,Sainte-Geneviève-des-Bois,,2.3129608959702024,48.65295347339147,,,0,IDFM:60785,,,0,
IDFM:monomodalStopPlace:43144,,La Grande-Paroisse,,2.896902458012003,48.37863280606578,,,0,IDFM:61412,,,0,
IDFM:monomodalStopPlace:43145,,La Plaine Stade de France,,2.362459916604931,48.918076675621,,,0,IDFM:72211,,,0,
IDFM:monomodalStopPlace:43142,,La Ferté-Alais,,2.352260197381972,48.4855007310595,,,0,IDFM:59661,,,0,
IDFM:monomodalStopPlace:43143,,La Frette - Montigny,,2.180341866372171,48.97988373233732,,,0,IDFM:65659,,,0,
IDFM:monomodalStopPlace:43149,,Lardy,,2.255014220399748,48.520620553497956,,,0,IDFM:59761,,,0,
IDFM:monomodalStopPlace:43146,,La Varenne - Chennevières,,2.5132322873015256,48.79532749459459,,,0,IDFM:72998,,,0,
IDFM:monomodalStopPlace:43147,,La Verrière,,1.943057018064192,48.7551716132828,,,0,IDFM:63426,,,0,
IDFM:monomodalStopPlace:43140,,La Courneuve - Aubervilliers,,2.3861140570949475,48.92429743203911,,,0,IDFM:72598,,,0,
IDFM:monomodalStopPlace:43154,,Maisons-Alfort - Alfortville,,2.4264376603578035,48.80217813521484,,,0,IDFM:73625,,,0,
IDFM:monomodalStopPlace:43156,,Maisse,,2.393493661032251,48.39367132989446,,,0,IDFM:59470,,,0,
IDFM:monomodalStopPlace:43157,,Mantes-la-Jolie,,1.703836824856348,48.989295021419494,,,0,IDFM:65931,,,0,
IDFM:monomodalStopPlace:43159,,Marolles-en-Hurepoix,,2.290908349251896,48.56564453550255,,,0,IDFM:59948,,,0,
IDFM:monomodalStopPlace:43150,,Saint-Ouen-l'Aumône Liesse,,2.128124092657316,49.0341234164973,,,0,IDFM:66659,,,0,
IDFM:monomodalStopPlace:43152,,Lognes,,2.633026934567703,48.839255049438655,,,0,IDFM:68123,,,0,
IDFM:monomodalStopPlace:43151,,Limay,,1.7474125098984148,48.98420212754175,,,0,IDFM:65788,,,0,
IDFM:monomodalStopPlace:43168,,Montsoult - Maffliers,,2.3228219079408823,49.06616021905701,,,0,IDFM:67000,,,0,
IDFM:monomodalStopPlace:43169,,Nanterre Préfecture,,2.2229862429913676,48.895886773064674,,,0,IDFM:70945,,,0,
IDFM:monomodalStopPlace:43166,,Montigny - Beauchamp,,2.1965151756043033,49.007744118117,,,0,IDFM:66335,,,0,
IDFM:monomodalStopPlace:43167,,Montreuil,,2.1528278413582385,48.805965217521,,,0,IDFM:63989,,,0,
IDFM:monomodalStopPlace:43164,,Mitry - Claye,,2.6422341369736606,48.9757479508066,,,0,IDFM:69065,,,0,
IDFM:monomodalStopPlace:43165,,Monnerville,,2.03249765465537,48.34855884654156,,,0,IDFM:59429,,,0,
IDFM:monomodalStopPlace:46477,,Champ de Courses d'Enghien,,2.291148632256432,48.9796949197308,,,0,IDFM:65663,,,0,
IDFM:monomodalStopPlace:46470,,La Barre Ormesson,,2.3167036448125224,48.96628415206348,,,0,IDFM:65360,,,0,
IDFM:monomodalStopPlace:43163,,Meudon Val Fleury,,2.2409419171683633,48.807552358196936,,,0,IDFM:70412,,,0,
IDFM:monomodalStopPlace:43162,,Meudon,,2.2428787225795106,48.81436409632574,,,0,IDFM:70515,,,0,
IDFM:monomodalStopPlace:43161,,Meaux,,2.8733082321502925,48.9566203252873,,,0,IDFM:68963,,,0,
IDFM:monomodalStopPlace:43160,,Maurecourt,,2.059634534011659,48.986862412057214,,,0,IDFM:65827,,,0,
IDFM:monomodalStopPlace:43179,,Pierrefitte - Stains,,2.3703314284767747,48.96277628555098,,,0,IDFM:72787,,,0,
IDFM:monomodalStopPlace:43175,,Palaiseau - Villebon,,2.237329249708309,48.7081489333421,,,0,IDFM:63067,,,0,
IDFM:monomodalStopPlace:43176,,Pantin,,2.4010414542870944,48.897987452300434,,,0,IDFM:72421,,,0,
IDFM:monomodalStopPlace:43177,,Parc de Sceaux,,2.309934691589042,48.769718949712896,,,0,IDFM:69906,,,0,
IDFM:monomodalStopPlace:43178,,Persan - Beaumont,,2.2777997330536137,49.147582944600785,,,0,IDFM:67292,,,0,
IDFM:monomodalStopPlace:46482,,Gros Noyer Saint-Prix,,2.2596836105712628,48.996079034066284,,,0,IDFM:66063,,,0,
IDFM:monomodalStopPlace:43172,,Neuilly-Plaisance,,2.5145898211367705,48.85252451313788,,,0,IDFM:73190,,,0,
IDFM:monomodalStopPlace:43171,,Nanterre Ville,,2.19511769490499,48.89501972616058,,,0,IDFM:70940,,,0,
IDFM:monomodalStopPlace:43170,,Nanterre Université,,2.213536495127317,48.90112974604822,,,0,IDFM:70956,,,0,
IDFM:monomodalStopPlace:43108,,Chaville Rive Gauche,,2.189425762809199,48.8051904761828,,,0,IDFM:73718,,,0,
IDFM:monomodalStopPlace:43107,,Chartrettes,,2.6952691308240335,48.48701587175729,,,0,IDFM:61763,,,0,
IDFM:monomodalStopPlace:43106,,Champagne-sur-Seine,,2.798915755216375,48.40726498958356,,,0,IDFM:61537,,,0,
IDFM:monomodalStopPlace:43101,,Bry-sur-Marne,,2.525670945020106,48.845137476280854,,,0,IDFM:73166,,,0,
IDFM:monomodalStopPlace:43100,,Bréval,,1.5418227473944963,48.943453022992934,,,0,IDFM:65051,,,0,
IDFM:monomodalStopPlace:43105,,Cernay,,2.257017857907824,48.985149200200375,,,0,IDFM:65752,,,0,
IDFM:monomodalStopPlace:43104,,Cergy le Haut,,2.011579068023536,49.04823262405815,,,0,IDFM:66834,,,0,
IDFM:monomodalStopPlace:43103,,Bures-sur-Yvette,,2.1643461393269345,48.69621022314541,,,0,IDFM:62851,,,0,
IDFM:monomodalStopPlace:43102,,Buno - Gironville,,2.3872541083159335,48.37149489082515,,,0,IDFM:59447,,,0,
IDFM:monomodalStopPlace:43118,,Courbevoie,,2.249189818087758,48.89861561377405,,,0,IDFM:73614,,,0,
IDFM:monomodalStopPlace:43117,,Coulommiers,,3.0812613115733436,48.80805936234078,,,0,IDFM:67920,,,0,
IDFM:monomodalStopPlace:43110,,Choisy-le-Roi,,2.411287538155699,48.76387977763339,,,0,IDFM:69852,,,0,
IDFM:monomodalStopPlace:43112,,Clichy - Levallois,,2.2974715210323566,48.897501127112044,,,0,IDFM:72073,,,0,
IDFM:monomodalStopPlace:43111,,Clamart,,2.274243860950152,48.814225639142954,,,0,IDFM:70505,,,0,
IDFM:monomodalStopPlace:43114,,Conflans Fin d'Oise,,2.0746499245710193,48.991156287258484,,,0,IDFM:73605,,,0,
IDFM:monomodalStopPlace:43113,,Colombes,,2.2593187577109575,48.92395845032284,,,0,IDFM:72244,,,0,
IDFM:monomodalStopPlace:43116,,Cormeilles-en-Parisis,,2.1930511780913897,48.9686435877584,,,0,IDFM:65399,,,0,
IDFM:monomodalStopPlace:43115,,Corbeil-Essonnes,,2.472467657639279,48.61323864277619,,,0,IDFM:60309,,,0,
IDFM:monomodalStopPlace:43129,,Gargenville,,1.8090110590166268,48.983003872761415,,,0,IDFM:65732,,,0,
IDFM:monomodalStopPlace:43127,,Le Chénay Gagny,,2.5527724908646303,48.877159125382796,,,0,IDFM:73266,,,0,
IDFM:monomodalStopPlace:43126,,Franconville - Le Plessis-Bouchard,,2.2341907839306554,48.99374640051787,,,0,IDFM:66005,,,0,
IDFM:monomodalStopPlace:43125,,Fontenay-aux-Roses,,2.2929083820455323,48.78756698215643,,,0,IDFM:70133,,,0,
IDFM:monomodalStopPlace:43124,,Fontaine Michalon,,2.2959559818374013,48.74304953436299,,,0,IDFM:69647,,,0,
IDFM:monomodalStopPlace:43123,,Fontaine-le-Port,,2.750465255041539,48.48734840615557,,,0,IDFM:61767,,,0,
IDFM:monomodalStopPlace:43122,,Drancy,,2.454883180745302,48.932732553959134,,,0,IDFM:72652,,,0,
IDFM:monomodalStopPlace:43121,,Dourdan,,2.008756915662106,48.53376051220457,,,0,IDFM:59836,,,0,
IDFM:monomodalStopPlace:43120,,Domont,,2.3371269712571614,49.03284003832482,,,0,IDFM:66654,,,0,
IDFM:monomodalStopPlace:43136,,Jouy-en-Josas,,2.1644478368550066,48.764760068378486,,,0,IDFM:63523,,,0,
IDFM:monomodalStopPlace:43135,,Joinville-le-Pont,,2.4638739495546496,48.82119737360793,,,0,IDFM:70640,,,0,
IDFM:monomodalStopPlace:43137,,Juziers,,1.8449525722587152,48.99224048747195,,,0,IDFM:65988,,,0,
IDFM:monomodalStopPlace:43132,,Grigny Centre,,2.39678605544789,48.65484195083382,,,0,IDFM:60797,,,0,
IDFM:monomodalStopPlace:43131,,Gretz-Armainvilliers,,2.727167738339898,48.74645539980236,,,0,IDFM:67658,,,0,
IDFM:monomodalStopPlace:43134,,Guillerval,,2.0597027321607784,48.37428478563944,,,0,IDFM:59450,,,0,
IDFM:monomodalStopPlace:43133,,Groslay,,2.3535217052321715,48.98436467954606,,,0,IDFM:65749,,,0,
IDFM:monomodalStopPlace:43130,,Gennevilliers,,2.307982254553742,48.93282405536431,,,0,IDFM:72303,,,0,
IDFM:monomodalStopPlace:47582,,Méry-sur-Oise,,2.1914182364676797,49.058277435287074,,,0,IDFM:66934,,,0,
IDFM:monomodalStopPlace:47585,,Mériel,,2.205438463461229,49.07775311707399,,,0,IDFM:67065,,,0,
IDFM:monomodalStopPlace:47580,,Frépillon,,2.197098920791642,49.045277206622124,,,0,IDFM:66798,,,0,
IDFM:monomodalStopPlace:47588,,Valmondois,,2.2019152338634327,49.09093718795672,,,0,IDFM:67107,,,0,
IDFM:monomodalStopPlace:47589,,L'Isle-Adam - Parmain,,2.209941858169547,49.11454854558362,,,0,IDFM:67172,,,0,
IDFM:monomodalStopPlace:47596,,Gare Épluches,,2.1226568963520114,49.055049202893706,,,0,IDFM:66915,,,0,
IDFM:monomodalStopPlace:47595,,Pont Petit,,2.131241645234573,49.06087605161007,,,0,IDFM:66952,,,0,
IDFM:monomodalStopPlace:47591,,Chaponval,,2.1410848292610347,49.069127824401804,,,0,IDFM:67016,,,0,
IDFM:monomodalStopPlace:47590,,Champagne-sur-Oise,,2.242987667830016,49.136089580289706,,,0,IDFM:67241,,,0,
IDFM:monomodalStopPlace:44161,,Montgeroult - Courcelles,,2.0029460458068105,49.080811910011626,,,0,IDFM:67076,,,0,
IDFM:monomodalStopPlace:47599,,Saint-Ouen-l'Aumône,,2.105230857870794,49.04530690087292,,,0,IDFM:66803,,,0,
IDFM:monomodalStopPlace:44199,,Noisiel,,2.616660606000051,48.84351408493866,,,0,IDFM:68153,,,0,
IDFM:monomodalStopPlace:44201,,Noisy-le-Sec,,2.4591980956866797,48.8966634168645,,,0,IDFM:72041,,,0,
IDFM:monomodalStopPlace:47654,,Bois-le-Roi,,2.691542568002651,48.47579827327959,,,0,IDFM:61727,,,0,
IDFM:monomodalStopPlace:47603,,Herblay,,2.1622316587721904,48.990136140429954,,,0,IDFM:65897,,,0,
IDFM:monomodalStopPlace:45346,,Javel,,2.27803679359566,48.84716158046345,,,0,IDFM:71150,,,0,
IDFM:monomodalStopPlace:43074,,Émerainville - Pontault-Combault,,2.618502939849115,48.80587944608123,,,0,IDFM:67897,,,0,
IDFM:monomodalStopPlace:43075,,Enghien-les-Bains,,2.3067933741682713,48.97288052394267,,,0,IDFM:65485,,,0,
IDFM:monomodalStopPlace:43072,,Gare d'Austerlitz,,2.367818767583529,48.84032035638395,,,0,IDFM:71135,,,0,
IDFM:monomodalStopPlace:43073,,Écouen - Ézanville,,2.3622367893055722,49.02319914892831,,,0,IDFM:66533,,,0,
IDFM:monomodalStopPlace:43070,,Aubergenville Élisabethville,,1.8489603900783327,48.97233225408568,,,0,IDFM:65490,,,0,
IDFM:monomodalStopPlace:43071,,Aulnay-sous-Bois,,2.495597257086315,48.932150935734064,,,0,IDFM:72646,,,0,
IDFM:monomodalStopPlace:43079,,Éragny - Neuville,,2.090571123307668,49.01790068888594,,,0,IDFM:66484,,,0,
IDFM:monomodalStopPlace:43078,,Épinay - Villetaneuse,,2.3287601965958715,48.95792884911306,,,0,IDFM:65227,,,0,
IDFM:monomodalStopPlace:43077,,Épinay-sur-Seine,,2.302388375122374,48.95382604164122,,,0,IDFM:72383,,,0,
IDFM:monomodalStopPlace:43076,,Épinay-sur-Orge,,2.332043500451718,48.6693475106473,,,0,IDFM:60915,,,0,
IDFM:monomodalStopPlace:43069,,Asnières-sur-Seine,,2.2832114335873186,48.90587474197106,,,0,IDFM:72132,,,0,
IDFM:monomodalStopPlace:43066,,Antony,,2.300890371505836,48.754632057173126,,,0,IDFM:69759,,,0,
IDFM:monomodalStopPlace:43068,,Arpajon,,2.2412169696111426,48.58599680822646,,,0,IDFM:60072,,,0,
IDFM:monomodalStopPlace:43067,,Arcueil - Cachan,,2.328093276131277,48.79869767228883,,,0,IDFM:70263,,,0,
IDFM:monomodalStopPlace:43092,,Boigneville,,2.378618440416535,48.341208632507616,,,0,IDFM:59420,,,0,
IDFM:monomodalStopPlace:43090,,Bessancourt,,2.2103009348975013,49.03527556641014,,,0,IDFM:66672,,,0,
IDFM:monomodalStopPlace:43091,,Bièvres,,2.2161603396773564,48.75087243760775,,,0,IDFM:63404,,,0,
IDFM:monomodalStopPlace:43096,,Bondy,,2.4795800358385867,48.893965864676495,,,0,IDFM:72037,,,0,
IDFM:monomodalStopPlace:43097,,Bourg-la-Reine,,2.312278311834309,48.78026436884244,,,0,IDFM:70033,,,0,
IDFM:monomodalStopPlace:43094,,Boissy-Saint-Léger,,2.504498176690716,48.752267307821874,,,0,IDFM:72881,,,0,
IDFM:monomodalStopPlace:46568,,Roissy-en-Brie,,2.650530702348584,48.79563367624288,,,0,IDFM:67839,,,0,
IDFM:monomodalStopPlace:43099,,Breuillet Village,,2.170354257290333,48.56433413404574,,,0,IDFM:59940,,,0,
IDFM:monomodalStopPlace:43098,,Brétigny,,2.3019573828860596,48.60664906621052,,,0,IDFM:60247,,,0,
IDFM:monomodalStopPlace:43080,,Étampes,,2.159819133907717,48.437062675829104,,,0,IDFM:478855,,,0,
IDFM:monomodalStopPlace:43081,,Étréchy,,2.1947692381982216,48.49387742150091,,,0,IDFM:59678,,,0,
IDFM:monomodalStopPlace:43082,,Houilles - Carrières-sur-Seine,,2.1851757042018707,48.92034757911033,,,0,IDFM:64741,,,0,
IDFM:monomodalStopPlace:43083,,Igny,,2.230807643224045,48.74084886110891,,,0,IDFM:63352,,,0,
IDFM:monomodalStopPlace:43084,,Issy,,2.257883547622023,48.81933737870203,,,0,IDFM:70612,,,0,
IDFM:monomodalStopPlace:43086,,Orsay Ville,,2.1808087044597166,48.6975077019159,,,0,IDFM:62892,,,0,
IDFM:monomodalStopPlace:46552,,Nogent - Le Perreux,,2.4939549579206104,48.839991175687295,,,0,IDFM:71609,,,0,
IDFM:monomodalStopPlace:43088,,Bellevue,,2.2299563222165655,48.818872981385084,,,0,IDFM:69528,,,0,
IDFM:monomodalStopPlace:43087,,Ballancourt,,2.3700930488013845,48.53101531216478,,,0,IDFM:59825,,,0,
IDFM:monomodalStopPlace:45301,,Bibliothèque François Mitterrand,,2.377758552865005,48.8288801225864,,,0,IDFM:71572,,,0,
IDFM:monomodalStopPlace:462357,,Issy Val de Seine,,2.2640113460455353,48.83050964570215,,,0,IDFM:71016,,,0,
IDFM:monomodalStopPlace:51494,,Osny,,2.0581556508746317,49.06281914403825,,,0,IDFM:66977,,,0,
IDFM:monomodalStopPlace:58874,,Bussy-Saint-Georges,,2.7103828395096956,48.83671337078136,,,0,IDFM:68105,,,0,
IDFM:monomodalStopPlace:58875,,Rueil-Malmaison,,2.172366417897185,48.88767250064626,,,0,IDFM:70902,,,0,
IDFM:monomodalStopPlace:58873,,Brunoy,,2.5068503123113692,48.698914475306886,,,0,IDFM:67476,,,0,
IDFM:monomodalStopPlace:58879,,Chelles - Gournay,,2.5833806594500697,48.87411948897062,,,0,IDFM:68407,,,0,
IDFM:monomodalStopPlace:462394,,Gare du Nord,,2.356693437528564,48.88230685842714,,,0,IDFM:71410,,,0,
IDFM:monomodalStopPlace:462388,,Viroflay Rive Gauche,,2.17158260741522,48.800665521455045,,,0,IDFM:63923,,,0,
IDFM:monomodalStopPlace:462398,,Aéroport CDG 1 (Terminal 3) - RER,,2.5614121946317394,49.00979397116337,,,0,IDFM:73596,,,0,
IDFM:monomodalStopPlace:54249,,Les Clairières de Verneuil,,1.9552440340828119,48.99266997269272,,,0,IDFM:65985,,,0,
IDFM:monomodalStopPlace:58798,,Pont du Garigliano - Hôpital Européen G. Pompidou,,2.2704701876900395,48.83888336270874,,,0,IDFM:74002,,,0,
IDFM:monomodalStopPlace:58792,,Sucy - Bonneuil,,2.5074994611650823,48.77206393780998,,,0,IDFM:72929,,,0,
IDFM:monomodalStopPlace:58793,,Villepinte,,2.512783848981341,48.96256540760733,,,0,IDFM:73547,,,0,
IDFM:monomodalStopPlace:415091,,Pont de l'Alma,,2.3003592740110994,48.86247496310803,,,0,IDFM:71271,,,0,
IDFM:monomodalStopPlace:415093,,Neuilly Porte Maillot,,2.284217509613705,48.878347804048644,,,0,IDFM:71379,,,0,
IDFM:monomodalStopPlace:58955,,Dordives,,2.762658376432018,48.14790552423752,,,0,IDFM:74077,,,0,
IDFM:monomodalStopPlace:43833,,Luxembourg,,2.3398088878203698,48.84543177842458,,,0,IDFM:71161,,,0,
IDFM:monomodalStopPlace:58937,,Noisy - Champs,,2.580103342831972,48.84289619599068,,,0,IDFM:73163,,,0,
IDFM:monomodalStopPlace:42356,,Rosny Bois Perrier,,2.4811863962676766,48.88258632328664,,,0,IDFM:426280,,,0,
IDFM:monomodalStopPlace:58572,,Magenta,,2.358695908637114,48.88081039411524,,,0,IDFM:478733,,,0,
IDFM:monomodalStopPlace:51238,,Bois-Colombes,,2.2716490888242244,48.91419560591249,,,0,IDFM:72179,,,0,
IDFM:monomodalStopPlace:58581,,Villiers Montbarbin,,2.882573667971905,48.86354898645753,,,0,IDFM:68311,,,0,
IDFM:monomodalStopPlace:58566,,Gare Saint-Lazare,,2.3244386552397684,48.87747568635212,,,0,IDFM:71370,,,0,
IDFM:monomodalStopPlace:58718,,Haussmann Saint-Lazare,,2.328646179742093,48.874998862001185,,,0,IDFM:73688,,,0,
IDFM:monomodalStopPlace:42516,,Cesson,,2.5946150549367304,48.56486314053174,,,0,IDFM:62176,,,0,
IDFM:monomodalStopPlace:58757,,Champ de Mars Tour Eiffel,,2.2896562493865478,48.8564765666592,,,0,IDFM:73844,,,0,
IDFM:monomodalStopPlace:58759,,Charles de Gaulle - Etoile,,2.295231447641207,48.874172759565376,,,0,IDFM:71347,,,0,
IDFM:monomodalStopPlace:58774,,Massy - Palaiseau,,2.2587677282577334,48.72551907437078,,,0,IDFM:63244,,,0,
IDFM:monomodalStopPlace:43607,,Laplace,,2.3343440158701894,48.808360137202826,,,0,IDFM:70427,,,0,
IDFM:monomodalStopPlace:44877,,Saint-Michel Notre-Dame,,2.344959780029387,48.853023793740164,,,0,IDFM:73620,,,0,
IDFM:monomodalStopPlace:44801,,Saint-Maur - Créteil,,2.4729094308778183,48.80619648110731,,,0,IDFM:70393,,,0,
IDFM:monomodalStopPlace:427870,,Rambouillet,,1.832207614506548,48.6438460126836,,,0,IDFM:60665,,,0,
IDFM:monomodalStopPlace:427872,,Lagny - Thorigny,,2.7059554888008988,48.8821904179895,,,0,IDFM:68494,,,0,
IDFM:monomodalStopPlace:57674,,Petit Jouy Les Loges,,2.1468519693445356,48.77123768805397,,,0,IDFM:63594,,,0,
IDFM:monomodalStopPlace:470195,,Gare de Lyon,,2.376365660931201,48.84340211646564,,,0,IDFM:73626,,,0,
IDFM:monomodalStopPlace:59038,,Vernon - Giverny,,1.477776772218189,49.091626659828435,,,0,IDFM:74127,,,0,
IDFM:monomodalStopPlace:59049,,Auneau,,1.779631964523447,48.445347392939446,,,0,IDFM:74138,,,0,
IDFM:monomodalStopPlace:473506,,Louveciennes,,2.1227777344789676,48.8612602848357,,,0,IDFM:64341,,,0,
IDFM:monomodalStopPlace:59206,,Sceaux,,2.2979282159439305,48.781307920937515,,,0,IDFM:74265,,,0,
IDFM:monomodalStopPlace:470519,,Gare de l'Est,,2.360305141171757,48.87857171221123,,,0,IDFM:71359,,,0,
IDFM:monomodalStopPlace:59302,,Maintenon,,1.5926330908061617,48.586256682993294,,,0,IDFM:74349,,,0,
IDFM:monomodalStopPlace:59301,,Gisors,,1.7847679942171768,49.285504693998305,,,0,IDFM:74348,,,0,
IDFM:monomodalStopPlace:473364,,Aéroport Charles de Gaulle 2 (Terminal 2),,2.5709800477570233,49.0041455478504,,,0,IDFM:73699,,,0,
IDFM:monomodalStopPlace:470549,,La Défense,,2.238418596250407,48.892229801568206,,,0,IDFM:71517,,,0,
IDFM:monomodalStopPlace:470540,,Invalides,,2.3126576509104404,48.8627130056211,,,0,IDFM:71274,,,0,
IDFM:monomodalStopPlace:58498,,Rosa Parks,,2.3737182728654673,48.89645824176388,,,0,IDFM:73798,,,0,
IDFM:monomodalStopPlace:415484,,Égly,,2.2234625238542307,48.582715781664064,,,0,IDFM:60052,,,0,
IDFM:monomodalStopPlace:464040,,Le Vert de Maisons,,2.4321242678299977,48.78883131123265,,,0,IDFM:73624,,,0,
IDFM:monomodalStopPlace:473875,,Nation,,2.3959444654495297,48.84823319072756,,,0,IDFM:71673,,,0,
IDFM:monomodalStopPlace:53783,,Chatou - Croissy,,2.1559376624708975,48.88519702561107,,,0,IDFM:64483,,,0,
IDFM:monomodalStopPlace:53784,,Le Vésinet - Centre,,2.1343339900216813,48.89013759185911,,,0,IDFM:64514,,,0,
IDFM:monomodalStopPlace:473890,,Denfert-Rochereau,,2.333220634641387,48.83318643678081,,,0,IDFM:71056,,,0,
IDFM:monomodalStopPlace:473843,,Cité Universitaire,,2.3388576809777035,48.82150600684166,,,0,IDFM:70623,,,0,
IDFM:monomodalStopPlace:58267,,Les Boullereaux Champigny,,2.511990843607618,48.82486398816196,,,0,IDFM:73098,,,0,
IDFM:monomodalStopPlace:58288,,Les Yvris Noisy-le-Grand,,2.5799804563719477,48.82311348135466,,,0,IDFM:73096,,,0,
IDFM:monomodalStopPlace:58270,,Champigny,,2.510538043646919,48.80682309456137,,,0,IDFM:73042,,,0,
IDFM:monomodalStopPlace:486896,,Longjumeau,,2.2939319851318754,48.70236857101996,,,0,IDFM:62977,,,0,
IDFM:monomodalStopPlace:486893,,Chilly-Mazarin,,2.307004115629188,48.70088013521177,,,0,IDFM:62939,,,0,
IDFM:monomodalStopPlace:486884,,Massy-Palaiseau,,2.2576829515968564,48.7253189473246,,,0,IDFM:63244,,,0,
IDFM:monomodalStopPlace:486887,,Petit Vaux,,2.3328203985410196,48.676579319002585,,,0,IDFM:60985,,,0,
IDFM:monomodalStopPlace:486890,,Gravigny Balizy,,2.3172789511051968,48.68618336822369,,,0,IDFM:62667,,,0,
IDFM:monomodalStopPlace:486879,,Épinay-sur-Orge,,2.3351512518948967,48.67058820152857,,,0,IDFM:60915,,,0,
IDFM:monomodalStopPlace:486901,,Évry - Courcouronnes,,2.4254761927912525,48.62493096325921,,,0,IDFM:60450,,,0,
IDFM:monomodalStopPlace:486958,,Champlan,,2.280774812226961,48.708006150659436,,,0,IDFM:486959,,,0,
IDFM:monomodalStopPlace:486968,,Bois de Saint-Eutrope,,2.3956200525009916,48.63413825771944,,,0,IDFM:486998,,,0,
IDFM:monomodalStopPlace:486979,,Parc du Château,,2.3553595398099834,48.66783428643682,,,0,IDFM:60892,,,0,
IDFM:monomodalStopPlace:486961,,Massy Europe,,2.2725692186256414,48.72437622636166,,,0,IDFM:486992,,,0,
IDFM:monomodalStopPlace:486971,,Ferme Neuve,,2.383397100238145,48.6521603643376,,,0,IDFM:60776,,,0,
IDFM:monomodalStopPlace:486966,,Traité de Rome,,2.4073526711363735,48.62513001357939,,,0,IDFM:486999,,,0,
IDFM:monomodalStopPlace:486977,,Coteaux de l'Orge,,2.3626624490510024,48.66530998182266,,,0,IDFM:486996,,,0,
IDFM:monomodalStopPlace:486974,,Amédée Gordini,,2.3737611037418866,48.65871699239033,,,0,IDFM:60856,,,0,
IDFM:monomodalStopPlace:486964,,Bois Briard,,2.415787031555093,48.621978362266894,,,0,IDFM:60387,,,0,
IDFM:monomodalStopPlace:487011,,Nanterre-La-Folie,,2.226568794458685,48.897581324774116,,,0,IDFM:488087,,,0,
IDFM:22528,,Rond-Point du Christ,,2.4220064796913396,48.97597701010256,4,,0,IDFM:65549,Europe/Paris,,1,
IDFM:22525,,Verdun,,2.4102589502455722,48.96750283997985,4,,0,IDFM:65377,Europe/Paris,,1,
IDFM:22523,,Mairie Annexe,,2.4229388890623884,48.97935366729131,4,,0,IDFM:65654,Europe/Paris,,1,
IDFM:10991,,Rutel,,3.0844376855617783,48.99542301329389,5,,0,IDFM:69150,Europe/Paris,,2,
IDFM:10992,,Rutel,,3.0847109613747117,48.99540483656722,5,,0,IDFM:69150,Europe/Paris,,2,
IDFM:22521,,Quatre Chemins - Edouard Vaillant,,2.3924472196245405,48.903331038372215,2,,0,IDFM:72460,Europe/Paris,,1,
IDFM:22520,,8 mai 1945,,2.410029355050133,48.8902439943521,2,,0,IDFM:71994,Europe/Paris,,1,
IDFM:22515,,Victor Hugo - Jean Jaurès,,2.310943739834344,48.89781771947422,2,,0,IDFM:482730,Europe/Paris,,1,
IDFM:22514,,Pont Yblon - Santos Dumont,,2.443980099502616,48.954840515712064,3,,0,IDFM:72767,Europe/Paris,,1,
IDFM:22517,,Fort d'Aubervilliers - Danielle Casanova,,2.403268543396255,48.91491451277316,2,,0,IDFM:73695,Europe/Paris,,1,
IDFM:22516,,Danielle Casanova - Pont Blanc,,2.3926507930663785,48.918620222510285,3,,0,IDFM:72550,Europe/Paris,,1,
IDFM:22511,,Fort d'Aubervilliers,,2.403465740226567,48.91437591539485,2,,0,IDFM:73695,Europe/Paris,,1,
IDFM:22512,,Michelet - Parc des Expositions,,2.4336330435384164,48.943245485224104,3,,0,IDFM:72706,Europe/Paris,,1,
IDFM:22509,,Jean Jaurès - Aristide Briand,,2.3788057798003637,48.962766818226086,4,,0,IDFM:72785,Europe/Paris,,1,
IDFM:22508,,Quatre Chemins - République,,2.3912598189633094,48.90454806963479,2,,0,IDFM:72460,Europe/Paris,,1,
IDFM:22501,,Armand Carrel - Mairie du 19ème,,2.382218995531981,48.88239653477612,1,,0,IDFM:71933,Europe/Paris,,1,
IDFM:39624,,Orme au Chat,,2.462787079479229,48.785240591049465,3,,0,IDFM:70081,Europe/Paris,,1,
IDFM:39625,,Henri Cardinaud,,2.464269655649447,48.782683958174026,3,,0,IDFM:70051,Europe/Paris,,1,
IDFM:39622,,René Arcos,,2.467043585997581,48.77759675126067,3,,0,IDFM:69998,Europe/Paris,,1,
IDFM:39623,,Henri Cardinaud,,2.4643976775309824,48.78214489157504,,,0,IDFM:70051,Europe/Paris,,1,
IDFM:39628,,Bretagne,,2.4608051659230665,48.79132057886167,3,,0,IDFM:70182,Europe/Paris,,1,
IDFM:10950,,Le Chemin,,3.1926860912245703,48.904824825389014,5,,0,IDFM:68664,Europe/Paris,,2,
IDFM:39629,,Hôpital Chenevier,,2.4615824768910177,48.78854495237701,3,,0,IDFM:70144,Europe/Paris,,1,
IDFM:39626,,Casalis - Savar,,2.4653253370459005,48.78060207550325,3,,0,IDFM:70031,Europe/Paris,,1,
IDFM:10952,,Montapeine,,3.201243839583277,48.9306918518434,5,,0,IDFM:68776,Europe/Paris,,2,
IDFM:39627,,Hôpital Chenevier,,2.461578300477764,48.788949661809305,,,0,IDFM:70144,Europe/Paris,,1,
IDFM:10951,,Montapeine,,3.201326181264739,48.93080861773265,5,,0,IDFM:68776,Europe/Paris,,2,
IDFM:35714,,Rue de la Vesgre,,1.659858523785491,48.73602490193012,5,,0,IDFM:474398,Europe/Paris,,2,
IDFM:10958,,Route d'Archet,,3.1782067580755804,48.90714940664354,5,,0,IDFM:68674,Europe/Paris,,2,
IDFM:35715,,Rue de la Vesgre,,1.6598624467310532,48.7358720231375,5,,0,IDFM:474398,Europe/Paris,,2,
IDFM:10957,,Route d'Archet,,3.1782891032385465,48.907293169202596,5,,0,IDFM:68674,Europe/Paris,,2,
IDFM:35716,,Eglise,,1.6529747563610422,48.72293988818505,5,,0,IDFM:63239,Europe/Paris,,2,
IDFM:35717,,Eglise,,1.6529786984676655,48.72278700789838,5,,0,IDFM:63239,Europe/Paris,,2,
IDFM:39621,,René Arcos,,2.4668255837686837,48.77762276071289,3,,0,IDFM:69998,Europe/Paris,,1,
IDFM:39620,,John Kennedy,,2.4631893105216913,48.777894287227134,,,0,IDFM:69996,Europe/Paris,,1,
IDFM:10961,,Place du Breuil,,2.9529623185616023,48.92197585403974,5,,0,IDFM:68728,Europe/Paris,,2,
IDFM:10967,,Beau Rivage,,3.0115102948835935,48.952433297604905,5,,0,IDFM:68920,Europe/Paris,,2,
IDFM:10966,,Résidence du Grand Morin,,2.841262514958011,48.88413695711285,5,,0,IDFM:68515,Europe/Paris,,2,
IDFM:35707,,Pré Joli,,1.670040009048655,48.77464761430155,5,,0,IDFM:63657,Europe/Paris,,2,
IDFM:10965,,Résidence du Grand Morin,,2.8389018122272747,48.8846733841344,5,,0,IDFM:68515,Europe/Paris,,2,
IDFM:35708,,Pré Joli,,1.670106203321586,48.77472031236075,5,,0,IDFM:63657,Europe/Paris,,2,
IDFM:10964,,Gare de Couilly - Saint-Germain - Quincy,,2.853523183977789,48.88348710218509,5,,0,IDFM:68505,Europe/Paris,,1,
IDFM:35706,,Bel Air,,1.664497873481145,48.77742824671322,5,,0,IDFM:63713,Europe/Paris,,2,
IDFM:10968,,Eglise,,3.0173675646309452,48.95158730440557,5,,0,IDFM:68909,Europe/Paris,,2,
IDFM:39630,,Orme au Chat,,2.462922900761287,48.78526818356442,3,,0,IDFM:70081,Europe/Paris,,1,
IDFM:10974,,Les Hameaux,,3.21283992587296,48.90945798733777,5,,0,IDFM:68685,Europe/Paris,,2,
IDFM:10973,,Les Hameaux,,3.2126622408120182,48.909377367619484,5,,0,IDFM:68685,Europe/Paris,,2,
IDFM:10979,,Rue de Metz,,3.082025052850925,48.94736102970073,5,,0,IDFM:68882,Europe/Paris,,1,
IDFM:10978,,Rue de Metz,,3.083076520713409,48.94749519266643,5,,0,IDFM:68882,Europe/Paris,,1,
IDFM:10985,,ZI Haute Borne,,3.1146481990445745,48.944330780090674,5,,0,IDFM:68856,Europe/Paris,,2,
IDFM:39616,,Rue du Monument,,2.51570885128776,48.81265517459057,3,,0,IDFM:73063,Europe/Paris,,1,
IDFM:10984,,ZI Haute Borne,,3.1150299728791646,48.94411459440649,5,,0,IDFM:68856,Europe/Paris,,2,
IDFM:39617,,Rue du Monument,,2.5166063303659527,48.812793712590235,4,,0,IDFM:73063,Europe/Paris,,2,
IDFM:39618,,Centre Commercial de Pincevent,,2.560638890687581,48.79583050877643,4,,0,IDFM:72999,Europe/Paris,,1,
IDFM:10981,,Perreuse,,3.0894381821235553,48.94721184888083,5,,0,IDFM:68877,Europe/Paris,,1,
IDFM:39612,,Kennedy - Bourgogne / Marché de Narbonne,,2.2922288856047537,48.73631330159639,4,,0,IDFM:69598,Europe/Paris,,1,
IDFM:10980,,Perreuse,,3.0889465043970987,48.94710430505168,5,,0,IDFM:68877,Europe/Paris,,2,
IDFM:39614,,Petit Chambord - Lycée Lakanal,,2.313502055541738,48.77724486802774,3,,0,IDFM:69982,Europe/Paris,,2,
IDFM:39619,,Paul Vaillant Couturier - Kennedy,,2.4218451087010715,48.80133756603738,3,,0,IDFM:70330,Europe/Paris,,1,
IDFM:10988,,Mairie,,3.068373659867704,48.927541024089805,5,,0,IDFM:68762,Europe/Paris,,2,
IDFM:10987,,ZI Sept-Sorts,,3.1033056901624527,48.94542918271578,5,,0,IDFM:68866,Europe/Paris,,2,
IDFM:10986,,ZI Sept-Sorts,,3.1024598788864193,48.945744645573264,5,,0,IDFM:68866,Europe/Paris,,2,
IDFM:39661,,Parc Départemental,,2.5281430796392708,48.81702187372639,4,,0,IDFM:73077,Europe/Paris,,1,
IDFM:39662,,Les Glaisières,,2.521361936641249,48.81246209039728,4,,0,IDFM:73061,Europe/Paris,,1,
IDFM:39663,,Parc Départemental,,2.5281282406377277,48.81715672047652,4,,0,IDFM:73077,Europe/Paris,,1,
IDFM:39664,,Sonia Delaunay,,2.527293115150992,48.81463518646913,4,,0,IDFM:73071,Europe/Paris,,1,
IDFM:39665,,Beau Site,,2.5190759282693214,48.81227304204363,4,,0,IDFM:482873,Europe/Paris,,1,
IDFM:423367,,Rue de la Chasse,,1.7424079181168428,48.992873226342226,5,,0,IDFM:423365,Europe/Paris,,2,
IDFM:39667,,Le Plateau,,2.5271330482605943,48.812763860767134,4,,0,IDFM:73071,Europe/Paris,,1,
IDFM:39666,,Les Glaisières,,2.5210654170914024,48.81212813490633,4,,0,IDFM:73061,Europe/Paris,,1,
IDFM:39669,,Le Plateau,,2.526264164819886,48.812472621881064,4,,0,IDFM:73071,Europe/Paris,,1,
IDFM:39668,,Beau Site,,2.518583889227872,48.81246892386772,4,,0,IDFM:482873,Europe/Paris,,2,
IDFM:35750,,Saint Roch,,1.8214804619320528,48.783190628174495,5,,0,IDFM:483640,Europe/Paris,,2,
IDFM:39671,,Anatole France - Pierre Brossolette,,2.496352786440083,48.80757466834548,3,,0,IDFM:70402,Europe/Paris,,1,
IDFM:22592,,Général de Gaulle - Stalingrad,,2.4957622782975695,48.8249930080841,3,,0,IDFM:70664,Europe/Paris,,1,
IDFM:39672,,Cimetière,,2.48564880987172,48.80911199954479,3,,0,IDFM:70424,Europe/Paris,,1,
IDFM:22593,,Val de Fontenay RER - Louison Bobet,,2.489650669499096,48.85239738373075,3,,0,IDFM:479908,Europe/Paris,,1,
IDFM:22590,,Ledru-Rollin - Général de Gaulle,,2.50278356143353,48.84287464363123,3,,0,IDFM:73164,Europe/Paris,,1,
IDFM:39670,,Sonia Delaunay,,2.527511812276902,48.814546113842354,4,,0,IDFM:73071,Europe/Paris,,1,
IDFM:22591,,Nogent-le-Perreux RER,,2.494339607434825,48.83826154687112,3,,0,IDFM:71609,Europe/Paris,,1,
IDFM:39675,,Neptune,,2.4909446964872877,48.807821575231195,3,,0,IDFM:70407,Europe/Paris,,1,
IDFM:39676,,Bourgogne,,2.4823045505309906,48.80993398588481,3,,0,IDFM:70444,Europe/Paris,,1,
IDFM:39673,,Libération - Condé,,2.4785500698944976,48.81091597789575,3,,0,IDFM:70463,Europe/Paris,,1,
IDFM:39674,,Les Tilleuls,,2.5007218860405795,48.80633386541717,3,,0,IDFM:73034,Europe/Paris,,1,
IDFM:423377,,Europe,,1.6944209399868606,48.979446179980926,5,,0,IDFM:65660,Europe/Paris,,2,
IDFM:423374,,Alpa,,1.7594632185373245,48.98544251336399,5,,0,IDFM:420957,Europe/Paris,,2,
IDFM:423368,,Rue de la Chasse,,1.7425063869752369,48.992757346536564,5,,0,IDFM:423365,Europe/Paris,,2,
IDFM:35749,,Saint Roch,,1.8213206174387693,48.78303613982012,5,,0,IDFM:483640,Europe/Paris,,2,
IDFM:39679,,Les Marronniers,,2.4971505624314863,48.8053295782484,3,,0,IDFM:70377,Europe/Paris,,1,
IDFM:39678,,Les Tilleuls,,2.500709303716299,48.80622588735219,3,,0,IDFM:73034,Europe/Paris,,1,
IDFM:22599,,Les Bosquets,,2.559430802660458,48.90502389460507,4,,0,IDFM:73346,Europe/Paris,,1,
IDFM:39677,,Général Leclerc,,2.5056317789688722,48.80691188591788,3,,0,IDFM:73039,Europe/Paris,,1,
IDFM:22595,,2 décembre 1870,,2.52537710165058,48.83363114226091,4,,0,IDFM:73129,Europe/Paris,,2,
IDFM:39643,,Les Sablons,,2.3754930880638194,48.97136450219159,4,,0,IDFM:65474,Europe/Paris,,1,
IDFM:423381,,Hauts de Limay,,1.7396369553694206,49.00400468376119,5,,0,IDFM:66270,Europe/Paris,,1,
IDFM:22580,,Rue de Plaisance - Lycée Louis Armand,,2.4909109501100573,48.84615230117029,3,,0,IDFM:71644,Europe/Paris,,1,
IDFM:22581,,Rue de Plaisance - Lycée Louis Armand,,2.490583930000986,48.84615090916941,3,,0,IDFM:71644,Europe/Paris,,1,
IDFM:22582,,Rond-Point du Général Leclerc,,2.494932985916313,48.84873248643448,3,,0,IDFM:71669,Europe/Paris,,1,
IDFM:423384,,Aristide Briand,,1.7406369846886507,48.999968266736936,5,,0,IDFM:425731,Europe/Paris,,2,
IDFM:423382,,Aristide Briand,,1.7408027047718169,48.99989806049914,5,,0,IDFM:425731,Europe/Paris,,2,
IDFM:39649,,Espérance - Julien Boursier,,2.3847073679589275,49.00993544044899,4,,0,IDFM:66370,Europe/Paris,,1,
IDFM:22584,,Château de Vincennes,,2.4413067756883935,48.843979342892446,2,,0,IDFM:71634,Europe/Paris,,2,
IDFM:39648,,Espérance - Julien Boursier,,2.384516858973649,49.00986252608074,4,,0,IDFM:66370,Europe/Paris,,1,
IDFM:35730,,Gare de Houdan,,1.6024726812110415,48.79585149332158,5,,0,IDFM:63893,Europe/Paris,,1,
IDFM:39645,,Mairie,,2.379684258586732,48.996735914735275,4,,0,IDFM:66050,Europe/Paris,,2,
IDFM:22587,,Nogent-sur-Marne RER - Pierre Semard,,2.4726914162953135,48.83547899799183,3,,0,IDFM:71590,Europe/Paris,,1,
IDFM:39644,,Villiers le Bel - Gonesse - Arnouville RER,,2.417364813640095,48.99521624344265,4,,0,IDFM:66009,Europe/Paris,,1,
IDFM:22589,,Sous-Préfecture - Jules Ferry,,2.4825073404721394,48.83752743343958,3,,0,IDFM:71600,Europe/Paris,,1,
IDFM:35732,,Saint-Quentin - Gare routière Paul Delouvrier,,2.043622062194034,48.78777460214494,5,,0,IDFM:63812,Europe/Paris,,1,
IDFM:39653,,Eglise de Villiers le Bel,,2.389622730641695,49.008090156539346,4,,0,IDFM:415523,Europe/Paris,,2,
IDFM:39650,,Henri Sellier,,2.3982315090907638,49.008322462363815,4,,0,IDFM:66340,Europe/Paris,,1,
IDFM:22571,,Rue du Port,,2.572054926680888,48.86784723088301,,,0,IDFM:68342,Europe/Paris,,1,
IDFM:423395,,Chaponnerie,,1.7308495701263753,48.99497285006065,5,,0,IDFM:66054,Europe/Paris,,2,
IDFM:35726,,Rue de Maule,,1.7998101597748197,48.869043219633916,5,,0,IDFM:64373,Europe/Paris,,2,
IDFM:35728,,Les Alouettes,,1.6133112332539368,48.78813401114974,5,,0,IDFM:63817,Europe/Paris,,2,
IDFM:35727,,La Folie,,1.6180991467898485,48.787766708802245,5,,0,IDFM:63810,Europe/Paris,,2,
IDFM:35729,,République,,1.602197463321369,48.79443604217001,5,,0,IDFM:424821,Europe/Paris,,2,
IDFM:22575,,Neuilly-Plaisance RER,,2.5132681468532945,48.853844798411494,,,0,IDFM:73190,Europe/Paris,,1,
IDFM:22574,,Marché - Chelles - Gournay RER,,2.583844899114102,48.874885524815,4,,0,IDFM:68407,Europe/Paris,,2,
IDFM:22579,,Général Faidherbe,,2.4759481050917977,48.836770398006216,3,,0,IDFM:71596,Europe/Paris,,2,
IDFM:22578,,Général Faidherbe,,2.4772626274617595,48.837468654279526,3,,0,IDFM:71596,Europe/Paris,,1,
IDFM:22577,,Maison Blanche,,2.548956250955206,48.863823356950945,4,,0,IDFM:73223,Europe/Paris,,2,
IDFM:22576,,Pasteur,,2.534772661090518,48.85854393864785,4,,0,IDFM:73204,Europe/Paris,,2,
IDFM:35798,,Noisement,,2.5640583221988362,48.56744027363395,5,,0,IDFM:62188,Europe/Paris,,2,
IDFM:423331,,Résidence du Lac,,1.7019856707148473,48.99877399510764,5,,0,IDFM:66150,Europe/Paris,,2,
IDFM:423334,,Mantes-la-Jolie Division Leclerc,,1.710398916793076,48.98966459515775,5,,0,IDFM:421035,Europe/Paris,,2,
IDFM:24690,,De Lattre de Tassigny,,2.2244618349657617,48.7853794932173,3,,0,IDFM:420177,Europe/Paris,,1,
IDFM:24692,,Pigalle,,2.337341106947233,48.88252527710352,1,,0,IDFM:71409,Europe/Paris,,1,
IDFM:24691,,Exelmans,,2.199486539236909,48.78000710451822,3,,0,IDFM:427240,Europe/Paris,,1,
IDFM:22556,,Chelles Gournay RER / Gasnier Guy,,2.5818695653545918,48.874689784459676,4,,0,IDFM:68407,Europe/Paris,,1,
IDFM:423327,,Marronniers,,1.6861403687472694,48.96975072990247,5,,0,IDFM:65419,Europe/Paris,,1,
IDFM:39685,,Cimetière,,2.4850762210359485,48.809181484896804,3,,0,IDFM:70424,Europe/Paris,,1,
IDFM:24683,,Buttes Chaumont,,2.381569842088008,48.87849908839857,1,,0,IDFM:71900,Europe/Paris,,2,
IDFM:39684,,Anatole France - Pierre Brossolette,,2.4957888362163576,48.80675385625065,3,,0,IDFM:70402,Europe/Paris,,1,
IDFM:24682,,Place des Fêtes,,2.392959616507311,48.87693859004261,1,,0,IDFM:71885,Europe/Paris,,2,
IDFM:39687,,Place d'Armes,,2.473988242746776,48.81227204056573,3,,0,IDFM:70476,Europe/Paris,,1,
IDFM:24681,,Louis Blanc,,2.364424862493678,48.88120621182599,1,,0,IDFM:71407,Europe/Paris,,2,
IDFM:39686,,Bourgogne,,2.481716812463013,48.810156283752114,3,,0,IDFM:70444,Europe/Paris,,1,
IDFM:24680,,Jaurès,,2.370451734004561,48.882344230208226,1,,0,IDFM:71940,Europe/Paris,,2,
IDFM:39681,,Saint-Maur - Créteil RER,,2.472594620771667,48.80599722868192,3,,0,IDFM:70393,Europe/Paris,,1,
IDFM:39680,,Libération - Condé,,2.477606829842304,48.8112806047101,3,,0,IDFM:70463,Europe/Paris,,1,
IDFM:39683,,Neptune,,2.4921838241696976,48.807817851534665,3,,0,IDFM:70407,Europe/Paris,,1,
IDFM:39682,,Général Leclerc,,2.5057492058682986,48.80745199839312,3,,0,IDFM:73039,Europe/Paris,,1,
IDFM:35773,,Auguste Mounié - Division Leclerc,,2.305412121453444,48.75420872502857,,,0,IDFM:69743,Europe/Paris,,1,
IDFM:39688,,Place d'Armes,,2.4734158761161633,48.81231448977961,3,,0,IDFM:70476,Europe/Paris,,1,
IDFM:24686,,Botzaris,,2.388908111185046,48.87943610160117,1,,0,IDFM:71906,Europe/Paris,,2,
IDFM:39689,,Luats-Amitié,,2.5320911887052993,48.82172308934259,4,,0,IDFM:73091,Europe/Paris,,1,
IDFM:24687,,Danube,,2.393228471227492,48.88194921492064,1,,0,IDFM:71930,Europe/Paris,,2,
IDFM:22544,,351 Avenue du Bois de la Pie,,2.515785512427256,48.99064507119541,5,,0,IDFM:69129,Europe/Paris,,1,
IDFM:24684,,Pré-Saint-Gervais,,2.398580770693528,48.8801595806643,1,,0,IDFM:71911,Europe/Paris,,2,
IDFM:24685,,Bolivar,,2.374124871187542,48.88078966297506,1,,0,IDFM:71920,Europe/Paris,,2,
IDFM:22547,,Les Merisiers,,2.3483038259480535,48.65591347712152,5,,0,IDFM:73774,Europe/Paris,,1,
IDFM:423337,,Schwob,,1.6865545102336121,49.000935338017676,5,,0,IDFM:66221,Europe/Paris,,1,
IDFM:22549,,Gambetta,,2.241328360018061,48.847914742639524,2,,0,IDFM:71168,Europe/Paris,,1,
IDFM:423335,,Schwob,,1.6867077781002926,49.000820103158176,5,,0,IDFM:66221,Europe/Paris,,1,
IDFM:39690,,Aristide Briand - Général De Gaulle,,2.536245381953278,48.8278369469505,4,,0,IDFM:73108,Europe/Paris,,1,
IDFM:423351,,Emile Zola,,1.7007523537850007,48.99343663274232,5,,0,IDFM:423350,Europe/Paris,,2,
IDFM:423352,,Liberté,,1.7028854157310793,48.99613071461223,5,,0,IDFM:66085,Europe/Paris,,2,
IDFM:423354,,Liberté,,1.7030632670686356,48.99612364381481,5,,0,IDFM:66085,Europe/Paris,,2,
IDFM:39698,,Noiseau-Amboile,,2.531924398266827,48.79023523639031,4,,0,IDFM:425800,Europe/Paris,,1,
IDFM:24670,,Maroc,,2.366903083445497,48.88710094360217,1,,0,IDFM:71457,Europe/Paris,,1,
IDFM:39697,,Le Morbras,,2.5343449476108253,48.77677175599222,,,0,IDFM:72949,Europe/Paris,,1,
IDFM:39696,,Emouleuses,,2.4717695385013414,48.77722200185388,3,,0,IDFM:69987,Europe/Paris,,2,
IDFM:24671,,Porte d'Aubervilliers - Oberlé,,2.3708153694710337,48.89964908591476,1,,0,IDFM:72434,Europe/Paris,,1,
IDFM:39694,,Square des Allobroges,,2.5435656630269343,48.833432127953735,4,,0,IDFM:73125,Europe/Paris,,1,
IDFM:39693,,Les Trois Musiciens,,2.540503427156565,48.83464352484569,4,,0,IDFM:73135,Europe/Paris,,1,
IDFM:39692,,Les Trois Musiciens,,2.541102200635127,48.834717771903335,4,,0,IDFM:73135,Europe/Paris,,1,
IDFM:39691,,Luats-Amitié,,2.5324440053408552,48.821868367727994,4,,0,IDFM:73091,Europe/Paris,,1,
IDFM:24679,,Front Populaire,,2.365777177193171,48.906763048164294,2,,0,IDFM:74041,Europe/Paris,,2,
IDFM:24673,,Duchesne - Bollaert,,2.3739533644010007,48.8995935850293,,,0,IDFM:72428,Europe/Paris,,1,
IDFM:22534,,Angélus - Fabien,,2.4641176680468546,48.92469864463862,3,,0,IDFM:72595,Europe/Paris,,1,
IDFM:24674,,Macdonald,,2.3729125332391465,48.89880573618163,1,,0,IDFM:72428,Europe/Paris,,2,
IDFM:22535,,Bobigny - Pablo Picasso,,2.4494240225399473,48.90753645112373,3,,0,IDFM:72486,Europe/Paris,,2,
IDFM:39699,,Rue de l'Ancien Moulin,,2.535252976161491,48.778717994525664,4,,0,IDFM:72955,Europe/Paris,,1,
IDFM:24675,,Riquet,,2.368137550051502,48.88988637472804,1,,0,IDFM:71988,Europe/Paris,,1,
IDFM:22533,,Angélus - Fabien,,2.46398018528609,48.92479695115144,3,,0,IDFM:72595,Europe/Paris,,1,
IDFM:22536,,Barbusse - Croizat,,2.457288670201001,48.9226085420588,3,,0,IDFM:72584,Europe/Paris,,1,
IDFM:22537,,Barbusse - Croizat,,2.456715451924926,48.922614937275426,3,,0,IDFM:72584,Europe/Paris,,1,
IDFM:423348,,Emile Zola,,1.7009330687745188,48.99386127407821,5,,0,IDFM:423350,Europe/Paris,,2,
IDFM:24779,,Durantin - Burq,,2.336475676245928,48.88623471700827,1,,0,IDFM:71451,Europe/Paris,,2,
IDFM:24778,,Saules - Cortot,,2.3399197613075366,48.88779160366992,1,,0,IDFM:71473,Europe/Paris,,2,
IDFM:24777,,Lamarck - Mont Cenis,,2.3426444726466076,48.88909262970763,1,,0,IDFM:71493,Europe/Paris,,2,
IDFM:24776,,Tourlaque,,2.3341164633905147,48.88730081370041,1,,0,IDFM:71464,Europe/Paris,,2,
IDFM:24775,,Place du Tertre - Norvins,,2.3414359313237925,48.88652290759246,1,,0,IDFM:71456,Europe/Paris,,2,
IDFM:24774,,Orsel,,2.3397706278651618,48.88342004382471,1,,0,IDFM:482803,Europe/Paris,,2,
IDFM:24773,,Lamarck - Becquerel,,2.34387666507766,48.88871267790801,1,,0,IDFM:71477,Europe/Paris,,2,
IDFM:24772,,Chappe,,2.3415916232333296,48.884994905505344,1,,0,IDFM:73849,Europe/Paris,,2,
IDFM:24770,,Mont Cenis - Cortot,,2.3415081961844,48.887278740146336,1,,0,IDFM:71473,Europe/Paris,,2,
IDFM:24771,,"88, Rue Lepic",,2.336284652118417,48.88731285198324,1,,0,IDFM:474351,Europe/Paris,,2,
IDFM:37497,,Place de Verdun,,2.3787975029561697,48.99432138189019,4,,0,IDFM:65965,Europe/Paris,,1,
IDFM:31432,,Volaille,,1.7440447109055708,48.64355650529802,5,,0,IDFM:60650,Europe/Paris,,2,
IDFM:31433,,Volaille,,1.743623774031841,48.6435610633059,5,,0,IDFM:60650,Europe/Paris,,2,
IDFM:24788,,Moulin de la Galette,,2.337459443106582,48.8871574793212,1,,0,IDFM:474351,Europe/Paris,,2,
IDFM:24787,,Funiculaire,,2.342522389164025,48.88580042275268,1,,0,IDFM:73848,Europe/Paris,,2,
IDFM:24789,,Drevet,,2.340534149566234,48.885582642759026,1,,0,IDFM:71456,Europe/Paris,,2,
IDFM:24784,,Martyrs,,2.339702042299807,48.88237644169053,1,,0,IDFM:474355,Europe/Paris,,2,
IDFM:24783,,Gabrielle,,2.3387100603718904,48.88639996424419,1,,0,IDFM:71456,Europe/Paris,,2,
IDFM:24786,,Yvonne Le Tac,,2.341167337413985,48.884039282305245,1,,0,IDFM:73849,Europe/Paris,,2,
IDFM:24785,,Chevalier de la Barre,,2.3444663921519147,48.88736691849865,1,,0,IDFM:71459,Europe/Paris,,2,
IDFM:24780,,Tholoze,,2.3348304147623526,48.885856863332236,1,,0,IDFM:71451,Europe/Paris,,2,
IDFM:24781,,Abbesses,,2.338940631987258,48.88435076736638,1,,0,IDFM:71432,Europe/Paris,,2,
IDFM:24782,,Abreuvoir - Girardon,,2.337921165890509,48.888383118216716,1,,0,IDFM:71473,Europe/Paris,,2,
IDFM:37483,,Landy - Martre,,2.3048945961869176,48.90443772594539,2,,0,IDFM:483468,Europe/Paris,,1,
IDFM:37484,,Roger Salomon,,2.4572604278570482,48.935782904174424,3,,0,IDFM:72665,Europe/Paris,,1,
IDFM:31401,,Le Boulay Place,,1.6593159650021725,48.78258737299488,5,,0,IDFM:424401,Europe/Paris,,2,
IDFM:31404,,Poule Faisane,,1.6720283918548589,48.77298764373881,5,,0,IDFM:63639,Europe/Paris,,2,
IDFM:35689,,Mairie,,1.7164930446556326,48.866316890381746,5,,0,IDFM:64372,Europe/Paris,,2,
IDFM:35688,,Pré Clos,,1.7143585877492467,48.86110424361109,5,,0,IDFM:64343,Europe/Paris,,2,
IDFM:35687,,Pré Clos,,1.7146955219255398,48.86126076723136,5,,0,IDFM:64343,Europe/Paris,,2,
IDFM:35686,,Pré du Bourg,,1.699635568903061,48.8425604656327,5,,0,IDFM:64256,Europe/Paris,,2,
IDFM:37479,,Lamartine,,2.367348139986449,48.78311848592094,3,,0,IDFM:70036,Europe/Paris,,2,
IDFM:35685,,Pré du Bourg,,1.6990002108272564,48.842355677123656,5,,0,IDFM:64256,Europe/Paris,,2,
IDFM:35684,,Place de la Liberté,,1.6979098376568134,48.841273461468155,5,,0,IDFM:64249,Europe/Paris,,2,
IDFM:37477,,Bretagne,,2.368141331249268,48.76931668005885,3,,0,IDFM:69888,Europe/Paris,,2,
IDFM:35682,,Place des Halles,,1.7008057905348712,48.83825579370514,5,,0,IDFM:64230,Europe/Paris,,2,
IDFM:37476,,S.E.N.I.A.,,2.368743746416569,48.75100754315786,4,,0,IDFM:69715,Europe/Paris,,2,
IDFM:35680,,Allée du Gué,,1.70229686907662,48.83473710819181,5,,0,IDFM:64213,Europe/Paris,,2,
IDFM:37473,,Porte de Thiais,,2.3655112881764557,48.759570978287115,3,,0,IDFM:73753,Europe/Paris,,1,
IDFM:35681,,Place des Halles,,1.7005518471238983,48.8386038234861,5,,0,IDFM:64230,Europe/Paris,,2,
IDFM:37474,,Domaine Chérioux,,2.367522276794785,48.77998046783237,3,,0,IDFM:70022,Europe/Paris,,1,
IDFM:37472,,Moulin Vert,,2.3675362204584522,48.772092680181366,3,,0,IDFM:69925,Europe/Paris,,1,
IDFM:37470,,Observatoire Camille Flammarion,,2.371534370451162,48.69544494876572,4,,0,IDFM:62807,Europe/Paris,,2,
IDFM:24769,,Lamarck - Caulaincourt,,2.340880875251853,48.88943367181111,1,,0,IDFM:71492,Europe/Paris,,2,
IDFM:35696,,Mairie,,1.678916888228122,48.89223426666828,5,,0,IDFM:64545,Europe/Paris,,2,
IDFM:35695,,Saint Corentin,,1.6876362647970078,48.8904773515208,5,,0,IDFM:64523,Europe/Paris,,2,
IDFM:37466,,Hôtel de Ville de Bobigny,,2.443814245584328,48.90651230995499,3,,0,IDFM:72477,Europe/Paris,,1,
IDFM:37469,,Marché des Gravilliers,,2.3719363003576714,48.701572482690366,4,,0,IDFM:62926,Europe/Paris,,2,
IDFM:35691,,Prieuré,,1.717289552229447,48.882137325878546,5,,0,IDFM:64466,Europe/Paris,,2,
IDFM:37462,,Echangeur de Bagnolet,,2.411968196699189,48.86468561155124,1,,0,IDFM:482759,Europe/Paris,,1,
IDFM:35692,,Prieuré,,1.7173658176474658,48.88236299768493,5,,0,IDFM:64466,Europe/Paris,,2,
IDFM:37464,,Gallieni,,2.4166966041695246,48.86483465763622,2,,0,IDFM:71817,Europe/Paris,,1,
IDFM:35694,,Saint Corentin,,1.6868744722845748,48.89039704600142,5,,0,IDFM:64523,Europe/Paris,,2,
IDFM:37460,,Hôpital de Montfermeil,,2.5707856589378255,48.901117210889886,4,,0,IDFM:73329,Europe/Paris,,1,
IDFM:35690,,Mairie,,1.716443844010148,48.86610049904361,5,,0,IDFM:64372,Europe/Paris,,2,
IDFM:24732,,Porte de Montreuil,,2.410079079481562,48.85335357335282,1,,0,IDFM:71710,Europe/Paris,,1,
IDFM:24730,,Place de la Porte de Montreuil,,2.4116281608822896,48.8537569138767,1,,0,IDFM:71710,Europe/Paris,,1,
IDFM:24731,,Porte de Montreuil,,2.4100507042412516,48.853452361798766,1,,0,IDFM:71710,Europe/Paris,,1,
IDFM:31465,,La Villeneuve,,1.677658429062156,48.65498292190201,5,,0,IDFM:60812,Europe/Paris,,2,
IDFM:31460,,Bois Dieu,,1.7211177314262012,48.64738782081124,5,,0,IDFM:60718,Europe/Paris,,2,
IDFM:22495,,Ledru Rollin - Faubourg Saint-Antoine,,2.37650441921349,48.85173537530738,1,,0,IDFM:71693,Europe/Paris,,1,
IDFM:22496,,Charonne - Keller,,2.377212148558248,48.852953186807916,1,,0,IDFM:71709,Europe/Paris,,1,
IDFM:22497,,Roquette - Père Lachaise,,2.38895655122817,48.86019952838087,1,,0,IDFM:71762,Europe/Paris,,1,
IDFM:22498,,Ledru Rollin - Faubourg Saint-Antoine,,2.3756140785753392,48.850975275703576,1,,0,IDFM:71693,Europe/Paris,,1,
IDFM:22492,,Centre de Radiologie,,2.7619497493751424,48.852457546338314,5,,0,IDFM:68238,Europe/Paris,,1,
IDFM:22491,,Centre Aquatique,,2.8015397455986637,48.84499337430865,5,,0,IDFM:68167,Europe/Paris,,2,
IDFM:22494,,Gare de Lyon - Diderot,,2.3714670234661264,48.8456743421324,1,,0,IDFM:73626,Europe/Paris,,1,
IDFM:22493,,Centre de Radiologie,,2.7620030690410107,48.85271845759319,5,,0,IDFM:68238,Europe/Paris,,1,
IDFM:22490,,Centre Aquatique,,2.8014315617576067,48.84477735482611,5,,0,IDFM:68167,Europe/Paris,,2,
IDFM:31459,,Bois Dieu,,1.720665877973288,48.647544898583504,5,,0,IDFM:60718,Europe/Paris,,2,
IDFM:24725,,Hôtel de Ville,,2.1343758778214057,48.894180453880516,4,,0,IDFM:64553,Europe/Paris,,1,
IDFM:24726,,Hôtel de Ville,,2.1329145292126026,48.894295789702596,4,,0,IDFM:64553,Europe/Paris,,1,
IDFM:37410,,Lavoisier - Carrières,,2.390922307270591,48.79931325767017,3,,0,IDFM:70282,Europe/Paris,,1,
IDFM:10918,,ZAC du Ternoy,,2.882204399959461,48.90543447760515,5,,0,IDFM:68661,Europe/Paris,,1,
IDFM:10917,,ZAC de la Bonne Rencontre,,2.881672478831522,48.905388989222004,5,,0,IDFM:68661,Europe/Paris,,1,
IDFM:10919,,Mairie,,3.143849071185046,48.9589749603314,5,,0,IDFM:68978,Europe/Paris,,2,
IDFM:10920,,Mairie,,3.143288123455613,48.95858895955001,5,,0,IDFM:68978,Europe/Paris,,1,
IDFM:10923,,Gare de Nanteuil Saâcy,,3.2202062799535294,48.97377733737444,5,,0,IDFM:69072,Europe/Paris,,1,
IDFM:10909,,René Benoist,,2.8618509002512598,48.90034976070335,5,,0,IDFM:68633,Europe/Paris,,2,
IDFM:10907,,Marie Curie,,2.87739392636733,48.8975069462885,5,,0,IDFM:68614,Europe/Paris,,2,
IDFM:10906,,Marie Curie,,2.876424984996702,48.89773077256042,5,,0,IDFM:68614,Europe/Paris,,2,
IDFM:10915,,Ségy,,2.8981577384815047,48.895269187202544,5,,0,IDFM:68597,Europe/Paris,,2,
IDFM:37409,,Exploradôme,,2.3928030399115072,48.793296874878145,3,,0,IDFM:70201,Europe/Paris,,1,
IDFM:10913,,Philo,,2.886231881858926,48.89773149716635,5,,0,IDFM:68619,Europe/Paris,,2,
IDFM:37408,,Exploradôme,,2.392652366567601,48.79337705509103,3,,0,IDFM:70201,Europe/Paris,,1,
IDFM:10914,,Philo,,2.8862999620530827,48.89778551911466,5,,0,IDFM:68619,Europe/Paris,,2,
IDFM:10911,,Rue de Crécy,,2.8804894841266715,48.89777986186431,5,,0,IDFM:68617,Europe/Paris,,2,
IDFM:10912,,Rue de Crécy,,2.880762420665136,48.897717183728,5,,0,IDFM:68617,Europe/Paris,,2,
IDFM:24703,,Pyramides - Tuileries,,2.3315786085873027,48.86402980193232,1,,0,IDFM:71284,Europe/Paris,,1,
IDFM:24702,,Mairie du 17e,,2.321743078217375,48.88448840507562,1,,0,IDFM:71428,Europe/Paris,,1,
IDFM:37403,,Avron,,2.498424528360631,48.84983538213943,3,,0,IDFM:71678,Europe/Paris,,1,
IDFM:24701,,Laplace RER,,2.334815085387809,48.8091233735669,2,,0,IDFM:70427,Europe/Paris,,2,
IDFM:24700,,Pigalle,,2.337453506119359,48.8822650930108,1,,0,IDFM:71409,Europe/Paris,,1,
IDFM:37407,,Fort d'Ivry,,2.388920396555823,48.80517606560533,3,,0,IDFM:70374,Europe/Paris,,1,
IDFM:37406,,Regnault,,2.376229499997416,48.82460912920394,1,,0,IDFM:73623,Europe/Paris,,1,
IDFM:37405,,Regnault,,2.376080432617319,48.82454539532403,1,,0,IDFM:73623,Europe/Paris,,1,
IDFM:37404,,Oudiné,,2.3732096251843373,48.826544981125586,1,,0,IDFM:70677,Europe/Paris,,1,
IDFM:10939,,Ecole,,3.1764155634785385,48.994495771301665,5,,0,IDFM:69149,Europe/Paris,,2,
IDFM:31480,,Lycée Jean Monnet,,1.782560962135145,48.80323654998852,5,,0,IDFM:63961,Europe/Paris,,2,
IDFM:31481,,1 Route Nationale,,1.7746900224891897,48.80500003767665,5,,0,IDFM:63978,Europe/Paris,,2,
IDFM:31482,,1 Route Nationale,,1.774651294059971,48.80490969360101,5,,0,IDFM:63978,Europe/Paris,,2,
IDFM:31485,,Champ de Foire,,1.8562834812664029,48.69690627460505,5,,0,IDFM:62862,Europe/Paris,,2,
IDFM:10945,,Courcelles la Roue,,3.1581113456576015,48.9069617895968,5,,0,IDFM:68673,Europe/Paris,,2,
IDFM:31487,,Chemin Neuf,,1.8460138363968361,48.68505926991405,5,,0,IDFM:62651,Europe/Paris,,2,
IDFM:10946,,Courcelles la Roue,,3.1579339176395322,48.90693504521514,5,,0,IDFM:68673,Europe/Paris,,2,
IDFM:31486,,Champ de Foire,,1.8557875010573395,48.69659567362364,5,,0,IDFM:62862,Europe/Paris,,2,
IDFM:10947,,Eglise,,3.1852426961731823,48.90619448598019,5,,0,IDFM:68670,Europe/Paris,,2,
IDFM:31489,,ZI Chemin Vert,,1.859329725621479,48.70364599867993,5,,0,IDFM:62995,Europe/Paris,,2,
IDFM:31488,,Chemin Neuf,,1.8459844872924995,48.68515793657202,5,,0,IDFM:62651,Europe/Paris,,2,
IDFM:10949,,Le Chemin,,3.1925910336845833,48.90494188520495,5,,0,IDFM:68664,Europe/Paris,,2,
IDFM:31490,,ZI Chemin Vert,,1.8593978596455323,48.70363765481607,5,,0,IDFM:62995,Europe/Paris,,2,
IDFM:31496,,Grand Amiral,,1.8516668672259349,48.68932373240838,5,,0,IDFM:62715,Europe/Paris,,2,
IDFM:10933,,Caumont,,3.1947469736754464,48.996247853743434,5,,0,IDFM:69157,Europe/Paris,,2,
IDFM:31495,,Gerbière,,1.8465971732225657,48.69371856842666,5,,0,IDFM:62802,Europe/Paris,,2,
IDFM:10934,,Chamoust,,3.1709843363235923,49.00506928158835,5,,0,IDFM:69191,Europe/Paris,,2,
IDFM:31494,,Gerbière,,1.846307919615521,48.693895679751236,5,,0,IDFM:62802,Europe/Paris,,2,
IDFM:31493,,Fer Ouvré,,1.8596996401430903,48.69977253198264,5,,0,IDFM:62924,Europe/Paris,,2,
IDFM:10932,,Caumont,,3.1948973609725613,48.996265593744695,5,,0,IDFM:69157,Europe/Paris,,2,
IDFM:10937,,Croix Barrée,,3.1812712130901364,48.99580137861191,5,,0,IDFM:69154,Europe/Paris,,2,
IDFM:31499,,Halpherie,,1.8561705100813959,48.702068545213315,5,,0,IDFM:62961,Europe/Paris,,2,
IDFM:10938,,Ecole,,3.176265309633693,48.994513976280366,5,,0,IDFM:69149,Europe/Paris,,2,
IDFM:31498,,Halpherie,,1.8563798354775676,48.70243936235359,5,,0,IDFM:62961,Europe/Paris,,2,
IDFM:31497,,Grand Amiral,,1.851411541374301,48.68919533689442,5,,0,IDFM:62715,Europe/Paris,,2,
IDFM:10936,,Croix Barrée,,3.1813256861193198,48.99574734384546,5,,0,IDFM:69154,Europe/Paris,,2,
IDFM:37454,,Pantin RER - Mairie,,2.3995696806977933,48.897278618075276,2,,0,IDFM:72421,Europe/Paris,,1,
IDFM:37441,,Parc des Chanteraines,,2.312882993875364,48.933810113488384,3,,0,IDFM:72307,Europe/Paris,,1,
IDFM:37440,,Quatre Chemins,,2.3219019555114717,48.923600527328425,3,,0,IDFM:72243,Europe/Paris,,1,
IDFM:37446,,Place Voltaire,,2.296896257960665,48.912826607449084,3,,0,IDFM:72166,Europe/Paris,,1,
IDFM:37447,,Marché de Gennevilliers,,2.3009105610548874,48.914639726392515,3,,0,IDFM:72172,Europe/Paris,,1,
IDFM:37445,,Square Lucien Brun,,2.386263387585859,48.91526026800115,2,,0,IDFM:72531,Europe/Paris,,1,
IDFM:37449,,Marché de Gennevilliers,,2.3001627070662396,48.91444650516766,3,,0,IDFM:72172,Europe/Paris,,1,
IDFM:37439,,Charles Gide,,2.4449249701583575,48.91621189831961,3,,0,IDFM:72576,Europe/Paris,,2,
IDFM:37433,,Auguste Polissard,,2.480938225887537,48.90616633322534,3,,0,IDFM:72474,Europe/Paris,,1,
IDFM:37434,,Gâtine RN3,,2.4764882982824794,48.90506780656156,3,,0,IDFM:72466,Europe/Paris,,1,
IDFM:10901,,Les Prés Longs,,2.871072091855969,48.90021615613597,5,,0,IDFM:68636,Europe/Paris,,1,
IDFM:10900,,Les Prés Longs,,2.8722163942577716,48.900819904252,5,,0,IDFM:68636,Europe/Paris,,1,
IDFM:10903,,Les Roises,,2.8563409450112136,48.900082485297965,5,,0,IDFM:68630,Europe/Paris,,1,
IDFM:10902,,Les Roises,,2.8562725701438025,48.90014535334667,5,,0,IDFM:68630,Europe/Paris,,2,
IDFM:10905,,Mairie,,2.8730658932624022,48.89926504173343,5,,0,IDFM:68626,Europe/Paris,,2,
IDFM:10904,,Mairie,,2.8732022057019626,48.89930115761472,5,,0,IDFM:68626,Europe/Paris,,2,
IDFM:37421,,Auguste Blanqui,,2.453881408062091,48.920893404707684,3,,0,IDFM:72572,Europe/Paris,,1,
IDFM:37420,,Auguste Blanqui,,2.453689240044707,48.92100044343331,3,,0,IDFM:72572,Europe/Paris,,1,
IDFM:37428,,Raymond Queneau - Route de Noisy,,2.4275544485698397,48.89518535863631,3,,0,IDFM:72039,Europe/Paris,,1,
IDFM:37426,,Gardebled,,2.483949061369859,48.874928235446845,3,,0,IDFM:71867,Europe/Paris,,1,
IDFM:37427,,Raymond Queneau - Métro,,2.425109069280784,48.89554236282583,3,,0,IDFM:72039,Europe/Paris,,1,
IDFM:37425,,Léon Blum,,2.477932132970183,48.879443730887616,3,,0,IDFM:71916,Europe/Paris,,1,
IDFM:37422,,Balzac,,2.458637895995771,48.9162206893919,3,,0,IDFM:72540,Europe/Paris,,1,
IDFM:37423,,Gabriel Péri - De Gaulle,,2.4800832702924005,48.87703391395544,3,,0,IDFM:71888,Europe/Paris,,1,
IDFM:10894,,Mairie,,2.916884381417166,49.06592832922155,5,,0,IDFM:69356,Europe/Paris,,2,
IDFM:10896,,Braunston,,2.868793217642002,48.9005913816065,5,,0,IDFM:68635,Europe/Paris,,1,
IDFM:473022,,Gazeran Buissonnet,,1.7738118181860525,48.638468988245826,5,,0,IDFM:60580,Europe/Paris,,1,
IDFM:473025,,Achères Ville,,2.077342313654105,48.96997200647565,5,,0,IDFM:73604,Europe/Paris,,1,
IDFM:22401,,Villejuif Paul Vaillant-Couturier,,2.3683316015776423,48.79631793416014,2,,0,IDFM:70248,Europe/Paris,,2,
IDFM:22400,,Villejuif - Louis Aragon,,2.36783901176962,48.78753717099888,2,,0,IDFM:70143,Europe/Paris,,2,
IDFM:39704,,Rue de l'Ancien Moulin,,2.5352113503092815,48.77880777246552,4,,0,IDFM:72955,Europe/Paris,,1,
IDFM:39703,,Noiseau-Amboile,,2.5317340018120293,48.790216502692054,4,,0,IDFM:425800,Europe/Paris,,1,
IDFM:39709,,La Fosse Rouge,,2.5238389514517103,48.77532727916198,4,,0,IDFM:72940,Europe/Paris,,1,
IDFM:10877,,Courtesoupe,,3.0589502070879075,48.89751922475982,5,,0,IDFM:68623,Europe/Paris,,2,
IDFM:22405,,Collège Henri IV,,2.5640411327702846,48.93441134305711,4,,0,IDFM:73433,Europe/Paris,,1,
IDFM:10882,,Beauval,,2.9789649631065953,49.039538011190324,5,,0,IDFM:69279,Europe/Paris,,2,
IDFM:10885,,Centre Bourg,,2.98920518190446,49.05763047053977,5,,0,IDFM:69334,Europe/Paris,,2,
IDFM:39717,,Mairie de Châtillon,,2.2907415291281112,48.799777089739635,3,,0,IDFM:70294,Europe/Paris,,1,
IDFM:10883,,Beauval,,2.9790881455463696,49.03931324067674,5,,0,IDFM:69279,Europe/Paris,,2,
IDFM:10884,,Centre Bourg,,2.9892598433524706,49.05794517870683,5,,0,IDFM:69334,Europe/Paris,,2,
IDFM:39719,,Général Valérie André,,2.187325028910225,48.7779102767656,3,,0,IDFM:74082,Europe/Paris,,1,
IDFM:35813,,Rue des Vignes,,2.281353989109947,48.76570505693681,3,,0,IDFM:69864,Europe/Paris,,1,
IDFM:10859,,Marcel Pagnol,,2.885676051252883,48.93966397374215,5,,0,IDFM:68809,Europe/Paris,,1,
IDFM:35816,,Cité du Luth-Verlaine,,2.2900586046252545,48.93397384860923,3,,0,IDFM:72312,Europe/Paris,,1,
IDFM:35817,,Ménil,,2.283682373815986,48.921219810346955,3,,0,IDFM:72228,Europe/Paris,,1,
IDFM:10855,,La Hayette,,2.879348252106482,48.94292205740534,5,,0,IDFM:68834,Europe/Paris,,1,
IDFM:10856,,La Roseraie,,2.9063597553063136,48.92282977925558,5,,0,IDFM:68732,Europe/Paris,,2,
IDFM:10851,,Galliéni,,2.9048251647002075,48.92622779521124,5,,0,IDFM:68750,Europe/Paris,,2,
IDFM:10850,,Clos Benoist,,2.899995221825927,48.925639339655426,5,,0,IDFM:68748,Europe/Paris,,1,
IDFM:39725,,Porte de Montmartre,,2.334494808468652,48.90037906607603,,,0,IDFM:462742,Europe/Paris,,1,
IDFM:39726,,Gare Montparnasse,,2.321110253115727,48.842026565231485,1,,0,IDFM:71139,Europe/Paris,,2,
IDFM:39723,,René Binet,,2.3359813307429738,48.899335115599285,1,,0,IDFM:482853,Europe/Paris,,1,
IDFM:39724,,Gare Saint-Lazare - Rome,,2.3232583017523862,48.87702351128422,1,,0,IDFM:71370,Europe/Paris,,1,
IDFM:39721,,Wagram - Courcelles,,2.30037587463673,48.88133469562585,1,,0,IDFM:71405,Europe/Paris,,1,
IDFM:39722,,Lyon - Ledru Rollin,,2.3722597281169575,48.84887122101834,,,0,IDFM:71666,Europe/Paris,,1,
IDFM:39720,,Jouffroy d'Abbans - Tocqueville,,2.310320941501316,48.8861408781856,1,,0,IDFM:71449,Europe/Paris,,1,
IDFM:10867,,C.F.A,,3.0369705039521824,49.02300732334288,5,,0,IDFM:69238,Europe/Paris,,2,
IDFM:10866,,Jeu de Boules,,3.218128561043845,48.976685634565044,5,,0,IDFM:69082,Europe/Paris,,2,
IDFM:10865,,Jeu de Boules,,3.2175821495821384,48.97668662693519,5,,0,IDFM:69082,Europe/Paris,,1,
IDFM:39736,,42ème de Ligne,,2.4825758278904853,48.81964839758508,3,,0,IDFM:70592,Europe/Paris,,1,
IDFM:10863,,Saint Pères,,2.880611645306299,48.94562107184038,5,,0,IDFM:68858,Europe/Paris,,1,
IDFM:10862,,Saint Pères,,2.8811042743681963,48.9451179820549,5,,0,IDFM:68858,Europe/Paris,,1,
IDFM:10860,,Marcel Pagnol,,2.885306850528977,48.93995138215063,5,,0,IDFM:68809,Europe/Paris,,1,
IDFM:35800,,Porte de l'Essonne,,2.371976418007853,48.71406628634918,4,,0,IDFM:74009,Europe/Paris,,1,
IDFM:39734,,Les Courtilles,,2.285097034017622,48.930491059562975,3,,0,IDFM:72286,Europe/Paris,,1,
IDFM:39735,,Fribouli,,2.321743484286474,48.739965510146114,4,,0,IDFM:63340,Europe/Paris,,1,
IDFM:35839,,Les 4 Chênes,,2.5878300080314296,48.77616778437829,5,,0,IDFM:74114,Europe/Paris,,2,
IDFM:10833,,Courcelles,,3.1995534809069626,48.984595150848165,5,,0,IDFM:69122,Europe/Paris,,2,
IDFM:10832,,Courcelles,,3.1994720243658916,48.984730168965996,5,,0,IDFM:69122,Europe/Paris,,2,
IDFM:10835,,50 Rue de Courcelles,,3.1974024430377823,48.97581331610725,5,,0,IDFM:69076,Europe/Paris,,2,
IDFM:10834,,La Brussette,,3.1944499536958952,48.971654718524405,5,,0,IDFM:69057,Europe/Paris,,1,
IDFM:35835,,Plage Bleue,,2.4653945413090788,48.75126350805736,,,0,IDFM:74102,Europe/Paris,,1,
IDFM:37606,,André Tessier,,2.4672565488134843,48.85271346987852,3,,0,IDFM:71699,Europe/Paris,,1,
IDFM:10837,,Calvaire,,3.200202487534494,48.96509884932509,5,,0,IDFM:69018,Europe/Paris,,2,
IDFM:35836,,Temps Durables,,2.472773466227083,48.75193490721431,4,,0,IDFM:74103,Europe/Paris,,2,
IDFM:37607,,Charles Garcia,,2.480778297018147,48.852449146209516,3,,0,IDFM:71707,Europe/Paris,,1,
IDFM:10836,,Calvaire,,3.200407935545476,48.965251375988444,5,,0,IDFM:69018,Europe/Paris,,2,
IDFM:35837,,Temps Durables,,2.472863064033611,48.751143809245036,,,0,IDFM:74103,Europe/Paris,,1,
IDFM:37608,,Pasteur,,2.4545991946223986,48.84850146068105,3,,0,IDFM:71664,Europe/Paris,,1,
IDFM:10839,,Eglise,,2.9872904767327664,48.942937139136134,5,,0,IDFM:68836,Europe/Paris,,2,
IDFM:37609,,Clément Vienot,,2.451467487557495,48.848262306292234,3,,0,IDFM:71660,Europe/Paris,,1,
IDFM:10838,,Eglise,,2.9874133487102874,48.94290118210302,5,,0,IDFM:68836,Europe/Paris,,2,
IDFM:37602,,Jean Macé,,2.481985229399422,48.85579093727457,3,,0,IDFM:71731,Europe/Paris,,1,
IDFM:35831,,Gare Pompadour,,2.4353298276891255,48.77184775017257,3,,0,IDFM:69950,Europe/Paris,,1,
IDFM:35832,,Basse Quinte,,2.443210845012502,48.77543741022759,3,,0,IDFM:69927,Europe/Paris,,2,
IDFM:37603,,La Fontaine,,2.4809233146607217,48.8584124081026,3,,0,IDFM:71749,Europe/Paris,,1,
IDFM:39746,,La Noue,,2.3260258984147875,48.934990870838,3,,0,IDFM:72313,Europe/Paris,,1,
IDFM:35833,,Basse Quinte,,2.4431582389767215,48.7752662774966,3,,0,IDFM:69927,Europe/Paris,,2,
IDFM:35834,,Plage Bleue,,2.4647547389967004,48.75131460743165,,,0,IDFM:74102,Europe/Paris,,1,
IDFM:37605,,Danielle Casanova,,2.4763000818626666,48.853266019280305,3,,0,IDFM:71704,Europe/Paris,,1,
IDFM:39749,,Rue du Port,,2.3428251199069186,48.93637014355341,3,,0,IDFM:412711,Europe/Paris,,1,
IDFM:37600,,Wilson - Gabriel Péri,,2.4399256844614414,48.857112365574054,2,,0,IDFM:71742,Europe/Paris,,1,
IDFM:10831,,85 Route de Saint Aulde,,3.1973860457748,48.98948147734236,5,,0,IDFM:69134,Europe/Paris,,2,
IDFM:39747,,L'Île-Saint-Denis,,2.3399121623919585,48.93572463506431,3,,0,IDFM:72319,Europe/Paris,,1,
IDFM:39748,,Rue du Port,,2.342691922199782,48.936108620008696,3,,0,IDFM:412711,Europe/Paris,,1,
IDFM:37601,,Nanteuil ZI - Jules Ferry,,2.475736952857883,48.87672717495063,3,,0,IDFM:71873,Europe/Paris,,1,
IDFM:10830,,85 Route de Saint Aulde,,3.197480392851813,48.98913962088173,5,,0,IDFM:69134,Europe/Paris,,2,
IDFM:10829,,50 Rue de Courcelles,,3.197210417429449,48.97560681016653,5,,0,IDFM:69076,Europe/Paris,,2,
IDFM:10845,,RN34,,2.8311568469308224,48.88454580383442,5,,0,IDFM:68520,Europe/Paris,,2,
IDFM:10844,,RN34,,2.831374530067772,48.88469899163388,5,,0,IDFM:68520,Europe/Paris,,2,
IDFM:35826,,Reine Blanche,,2.348129101878471,48.813747616003745,2,,0,IDFM:70483,Europe/Paris,,1,
IDFM:37619,,Gagny RER,,2.5250029442021638,48.88216682598373,4,,0,IDFM:73278,Europe/Paris,,1,
IDFM:10849,,Clos Benoist,,2.900022308329809,48.92574727405552,5,,0,IDFM:68748,Europe/Paris,,1,
IDFM:35827,,Porte de la Villette,,2.386607535779561,48.8987957225067,1,,0,IDFM:72430,Europe/Paris,,1,
IDFM:35824,,Bout du Rang - Picasso,,2.345976406383904,48.81165827542622,2,,0,IDFM:70471,Europe/Paris,,1,
IDFM:10848,,Collot,,2.9086438949856874,48.91985496385862,5,,0,IDFM:68724,Europe/Paris,,1,
IDFM:35825,,Jean Jaurès - Saint-Eloi,,2.3501747066325898,48.813515917562675,2,,0,IDFM:70517,Europe/Paris,,1,
IDFM:37618,,Église de Rosny-sous-Bois,,2.4821037774322474,48.87402993382253,3,,0,IDFM:71867,Europe/Paris,,1,
IDFM:10847,,Château,,2.8902227211516673,48.932716971997024,5,,0,IDFM:68778,Europe/Paris,,1,
IDFM:35822,,Clémenceau,,2.3085821315773747,48.78497845380062,3,,0,IDFM:70090,Europe/Paris,,1,
IDFM:39754,,La Courneuve - 8 Mai 1945,,2.409866426012484,48.92026203464405,3,,0,IDFM:73696,Europe/Paris,,1,
IDFM:37615,,Bois Perrier RER - Rosny 2,,2.481854834482033,48.8826083941895,3,,0,IDFM:426280,Europe/Paris,,1,
IDFM:35823,,Division Leclerc - Médiathèque,,2.3472497218627013,48.81437238820702,,,0,IDFM:70532,Europe/Paris,,1,
IDFM:37616,,Grand Verger,,2.4776851890935183,48.87279664412142,3,,0,IDFM:71855,Europe/Paris,,1,
IDFM:37613,,Avenue Lucie,,2.527547665733424,48.87973075214395,4,,0,IDFM:73271,Europe/Paris,,1,
IDFM:37614,,Bois Perrier RER - Rosny 2,,2.4816373847257105,48.88253550738509,3,,0,IDFM:426280,Europe/Paris,,1,
IDFM:37611,,Place Carnot,,2.522928414576785,48.842183235359535,,,0,IDFM:73160,Europe/Paris,,1,
IDFM:37612,,Mairie,,2.519876509890083,48.83476935728872,4,,0,IDFM:73137,Europe/Paris,,1,
IDFM:39759,,Observatoire - Port Royal,,2.3364511668342867,48.83999913406338,1,,0,IDFM:71106,Europe/Paris,,1,
IDFM:37610,,Clément Vienot,,2.451889330982649,48.8470231368598,,,0,IDFM:71660,Europe/Paris,,1,
IDFM:39750,,Daumesnil - Ledru Rollin,,2.3728181941527073,48.84889213696249,1,,0,IDFM:71666,Europe/Paris,,1,
IDFM:39753,,La Courneuve - 8 Mai 1945,,2.4100715109753414,48.92022707282825,3,,0,IDFM:73696,Europe/Paris,,1,
IDFM:39762,,Blanche,,2.333002293188869,48.88378722752784,1,,0,IDFM:71420,Europe/Paris,,1,
IDFM:22460,,Dagoty,,2.4764812752929313,48.816240231864,3,,0,IDFM:70557,Europe/Paris,,1,
IDFM:35852,,Place de Clichy - Caulaincourt,,2.3284836164824405,48.88417566109694,1,,0,IDFM:71435,Europe/Paris,,1,
IDFM:22463,,République - Blum,,2.4334176848238327,48.80258916718204,3,,0,IDFM:70341,Europe/Paris,,1,
IDFM:22465,,Vitry RER,,2.402242562379898,48.80109724008849,3,,0,IDFM:70313,Europe/Paris,,1,
IDFM:22464,,Vitry RER,,2.4022165712502335,48.800989183157675,3,,0,IDFM:70313,Europe/Paris,,1,
IDFM:22467,,Malnoue - Bois des Souches,,2.590682767444743,48.830580825429934,4,,0,IDFM:68065,Europe/Paris,,1,
IDFM:39766,,Pasquier - Anjou,,2.325204886586285,48.874111650223924,1,,0,IDFM:71370,Europe/Paris,,1,
IDFM:22466,,Edith Cavell - Waldeck Rousseau,,2.410132767415115,48.80165808445732,3,,0,IDFM:70328,Europe/Paris,,1,
IDFM:39765,,Observatoire - Port Royal,,2.336967392856293,48.840118914059616,1,,0,IDFM:71106,Europe/Paris,,2,
IDFM:35854,,Wilson - Provigny,,2.3306939846356514,48.79707544554985,3,,0,IDFM:70253,Europe/Paris,,1,
IDFM:22469,,Malnoue - Place Auguste Legemble,,2.5954503273282774,48.82709855546853,4,,0,IDFM:68031,Europe/Paris,,1,
IDFM:39767,,Gambetta,,2.243425865230165,48.892104159507404,3,,0,IDFM:415520,Europe/Paris,,1,
IDFM:35853,,Robespierre,,2.334898955930072,48.80147899138658,3,,0,IDFM:480546,Europe/Paris,,1,
IDFM:22468,,Malnoue - Place Auguste Legemble,,2.595287504095807,48.82701706248369,4,,0,IDFM:68031,Europe/Paris,,1,
IDFM:35859,,Rousselle,,2.2439999903330827,48.886379018204394,3,,0,IDFM:71448,Europe/Paris,,1,
IDFM:39774,,8 mai 1945,,2.2744839852718775,48.728444455077714,4,,0,IDFM:63259,Europe/Paris,,1,
IDFM:39772,,8 mai 1945,,2.2741997432197896,48.728352780881906,4,,0,IDFM:63259,Europe/Paris,,1,
IDFM:39770,,Père Brottier - Charles Infroit,,2.2455484172598354,48.80585916432309,3,,0,IDFM:70383,Europe/Paris,,1,
IDFM:22450,,Senette,,2.0357442384769193,48.937089812617195,5,,0,IDFM:64912,Europe/Paris,,2,
IDFM:24591,,Marché des Batignolles,,2.3190434293444,48.889671205953654,1,,0,IDFM:71486,Europe/Paris,,1,
IDFM:22454,,Montaigne,,2.4861244201034545,48.771897169149504,3,,0,IDFM:69922,Europe/Paris,,1,
IDFM:22452,,Joinville-le-Pont RER,,2.4639756074464354,48.8205827526532,3,,0,IDFM:70640,Europe/Paris,,1,
IDFM:22451,,Stade Bretagne,,2.0222348756479103,48.93681848515695,5,,0,IDFM:64903,Europe/Paris,,2,
IDFM:22458,,République - Alexandre Fourny,,2.5113610651028857,48.81887012476406,,,0,IDFM:73086,Europe/Paris,,1,
IDFM:24597,,Évangile - Aubervilliers,,2.3708867701059053,48.8959982387826,1,,0,IDFM:72035,Europe/Paris,,1,
IDFM:22457,,République - Alexandre Fourny,,2.5117744883845794,48.81980715632283,3,,0,IDFM:73086,Europe/Paris,,1,
IDFM:35845,,Parc en Seine,,2.4358191697539295,48.74294261358147,4,,0,IDFM:74101,Europe/Paris,,2,
IDFM:24599,,Parc de la Planchette,,2.2854701855881268,48.89636442415218,2,,0,IDFM:71553,Europe/Paris,,1,
IDFM:22456,,Général de Gaulle - Stalingrad,,2.4959136110043074,48.823428750439774,3,,0,IDFM:70664,Europe/Paris,,1,
IDFM:35844,,Parc en Seine,,2.4354652109279313,48.742976917778606,4,,0,IDFM:74101,Europe/Paris,,2,
IDFM:24598,,Place Marie-Jeanne Bassot,,2.283611637176328,48.897612375665815,2,,0,IDFM:72050,Europe/Paris,,1,
IDFM:22455,,Petits Carreaux,,2.4947679153191813,48.77158326913534,,,0,IDFM:69934,Europe/Paris,,1,
IDFM:35847,,Place de Clichy,,2.326427642680124,48.88287806778058,1,,0,IDFM:71435,Europe/Paris,,1,
IDFM:35846,,Rue Foch,,2.4088020966789707,48.731667815585205,4,,0,IDFM:478500,Europe/Paris,,2,
IDFM:35849,,Trinité,,2.331546082295623,48.876125772646766,1,,0,IDFM:71355,Europe/Paris,,1,
IDFM:22480,,Hôtel de Ville,,2.6064543087214727,48.80210592211625,5,,0,IDFM:67872,Europe/Paris,,2,
IDFM:35870,,Paul de Kock,,2.4197081668273204,48.88083042695212,2,,0,IDFM:71924,Europe/Paris,,1,
IDFM:22481,,Closeau,,2.786568198954997,48.73438912519101,5,,0,IDFM:478480,Europe/Paris,,0,
IDFM:39783,,Le Cor de Chasse - La Belle Epine,,2.3687487142806196,48.75959712806064,3,,0,IDFM:480875,Europe/Paris,,1,
IDFM:39784,,Ecole Départementale,,2.367815722962957,48.77485536697938,3,,0,IDFM:479992,Europe/Paris,,1,
IDFM:39785,,Gare de Mantes-la-Jolie - Quai 6,,1.7020158211227745,48.99045553810116,5,,0,IDFM:65931,Europe/Paris,,2,
IDFM:22489,,Centre Urbain (accès RER),,2.772603324916784,48.85323370242246,5,,0,IDFM:490756,Europe/Paris,,1,
IDFM:39788,,Pont Neuf - Quai du Louvre,,2.3413526400734637,48.85860696025254,1,,0,IDFM:71253,Europe/Paris,,1,
IDFM:22488,,Centre Urbain (accès RER),,2.7730123191246627,48.85319850588949,5,,0,IDFM:490756,Europe/Paris,,1,
IDFM:39789,,Châtelet,,2.348079008806873,48.858059215682175,1,,0,IDFM:71264,Europe/Paris,,1,
IDFM:22485,,Buffard,,2.7618474373854522,48.86291648216032,5,,0,IDFM:68298,Europe/Paris,,1,
IDFM:35874,,Mairie de Montreuil,,2.4427177066044834,48.862395537513976,2,,0,IDFM:71785,Europe/Paris,,1,
IDFM:22484,,Buffard,,2.7619138634738425,48.8632943286053,5,,0,IDFM:68298,Europe/Paris,,1,
IDFM:22487,,Centre Hospitalier,,2.768936230083416,48.850420771924064,5,,0,IDFM:68203,Europe/Paris,,1,
IDFM:22486,,Centre Hospitalier,,2.7703366984562745,48.85113393851662,5,,0,IDFM:68203,Europe/Paris,,1,
IDFM:35871,,Mairie des Lilas - Métro,,2.4162166184030283,48.87968929452055,2,,0,IDFM:71909,Europe/Paris,,1,
IDFM:22471,,Gare Routière Nord (B1),,2.039812754917731,48.93336330682223,5,,0,IDFM:64883,Europe/Paris,,1,
IDFM:22472,,Gare Routière Nord (C3),,2.0392693277456115,48.93322405297094,5,,0,IDFM:64883,Europe/Paris,,1,
IDFM:39791,,Pont Neuf - Quai du Louvre,,2.341516414243645,48.858589874546006,1,,0,IDFM:71253,Europe/Paris,,1,
IDFM:22470,,Rue de la Ferme,,2.6299772840509097,48.835781181866864,5,,0,IDFM:463417,Europe/Paris,,1,
IDFM:35865,,Cèdre,,2.6676506405739646,48.84088314762169,5,,0,IDFM:74045,Europe/Paris,,2,
IDFM:35864,,Butte de Vaux,,2.698533096525117,48.83234025529377,5,,0,IDFM:68089,Europe/Paris,,2,
IDFM:22479,,Libération - Rabelais,,2.476069033500995,48.807118745457124,3,,0,IDFM:415675,Europe/Paris,,1,
